[
  {
    "name": "DE ARMAS JOSE MARIA",
    "state": "buenos-aires",
    "city": "ameghino",
    "address": "Acc. Ruta 66 0 - Barrio : San Miguel",
    "lat": -34.3776753,
    "lng": -58.7337868,
    "email": "josemdearmas@gmail.com",
    "phone": "(3388)675323",
    "type": "gestya"
  },
  {
    "name": "ELECTROMECANICA RIVADAVIA",
    "state": "buenos-aires",
    "city": "america",
    "address": "Saavedra N° 457",
    "lat": -35.4926937,
    "lng": -62.98044669999999,
    "email": "electrorivadavia@jsnet.com.ar",
    "phone": "(02337)453298",
    "type": "gestya"
  },
  {
    "name": "GOMEZ LEONEL",
    "state": "buenos-aires",
    "city": "arrecifes",
    "address": "Juan Manuel De Rosas 895",
    "lat": -34.0578923,
    "lng": -60.0931827,
    "email": "leonelgomezbernard@gmail.com",
    "phone": "(02478)15409388",
    "type": "gestya"
  },
  {
    "name": "TALLER MECANICO SJ",
    "state": "buenos-aires",
    "city": "arribenos",
    "address": "Caseros Y Peru",
    "lat": -34.2103138,
    "lng": -61.3507028,
    "email": "mecanica5j@yahoo.com",
    "phone": "(02353)497370",
    "type": "gestya"
  },
  {
    "name": "CASA TOMES",
    "state": "buenos-aires",
    "city": "azul",
    "address": "Alfredo Prat 1818",
    "lat": -36.7922123,
    "lng": -59.8384156,
    "email": "casatomes@live.com.ar",
    "phone": "(02281)431572",
    "type": "gestya"
  },
  {
    "name": "ELECTRICIDAD MARCELO",
    "state": "buenos-aires",
    "city": "azul",
    "address": "Calle 9 Nro. 615",
    "lat": -36.7682769,
    "lng": -59.8460753,
    "email": "electricidadmarcelo@yahoo.com.ar",
    "phone": "(02281)423490",
    "type": "gestya"
  },
  {
    "name": "DAVID REPUESTOS S.R.L.",
    "state": "buenos-aires",
    "city": "bahia-blanca",
    "address": "Vieytes 1900",
    "lat": -38.7040285,
    "lng": -62.28958100000001,
    "email": "info@davidrepuestos.com.ar",
    "phone": "(0291)4542264",
    "type": "gestya"
  },
  {
    "name": "RECAMBIOS DELTA S.R.L.",
    "state": "buenos-aires",
    "city": "bahia-blanca",
    "address": "Granada 45",
    "lat": -38.7326996,
    "lng": -62.28318239999999,
    "email": "proveedores@recambiosdelta.com.ar",
    "phone": "(0291)4529910",
    "type": "gestya"
  },
  {
    "name": "VICAM",
    "state": "buenos-aires",
    "city": "bahia-blanca",
    "address": "Ruta Nacional 3 Km 696",
    "lat": -38.7069,
    "lng": -62.3363073,
    "email": "fernandovicam@hotmail.com",
    "type": "gestya"
  },
  {
    "name": "MANGONE Y DONOFRIO",
    "state": "buenos-aires",
    "city": "balcarce",
    "address": "Av. San Martin 3245",
    "lat": -37.8356057,
    "lng": -58.2416795,
    "email": "mangoneydonofrio@hotmail.com",
    "phone": "(02266)420845",
    "type": "gestya"
  },
  {
    "name": "VALV MAX CAMIONES",
    "state": "buenos-aires",
    "city": "baradero",
    "address": "Ruta 41 Km 332",
    "lat": -33.814856,
    "lng": -59.5313869,
    "email": "valv_max@hotmail.com",
    "phone": "(03329)15411118",
    "type": "gestya"
  },
  {
    "name": "ELECTRICIDAD INFANTINO",
    "state": "buenos-aires",
    "city": "benito-juarez",
    "address": "Av. Taglioretti 785",
    "lat": -37.66292920000001,
    "lng": -59.8180982,
    "email": "electricidadinfantinojuarez@gmail.com",
    "phone": "(02292)453487",
    "type": "gestya"
  },
  {
    "name": "ELECTROMECANICA SACINO SRL",
    "state": "buenos-aires",
    "city": "berazategui",
    "address": "Calle 138 Esquina 21",
    "lat": -34.7740695,
    "lng": -58.21503010000001,
    "email": "sacinocompras@yahoo.com.ar",
    "phone": "(011)42560546",
    "type": "gestya"
  },
  {
    "name": "REYES EQUIPAMIENTOS S.A.",
    "state": "buenos-aires",
    "city": "bolivar",
    "address": "Avenida San Martin 983",
    "lat": -36.2283444,
    "lng": -61.1164884,
    "email": "reyequip@hotmail.com",
    "phone": "(02314)428099",
    "type": "gestya"
  },
  {
    "name": "DECIBE SERVICIOS",
    "state": "buenos-aires",
    "city": "bragado",
    "address": "Ruta 5 Km 208",
    "lat": -35.1385379,
    "lng": -60.454359,
    "email": "decibeservicios@hotmail.com",
    "phone": "(02346)15564699",
    "type": "gestya"
  },
  {
    "name": "OSCAR POURTAU S.A.",
    "state": "buenos-aires",
    "city": "brandsen",
    "address": "Ruta 29 Km 0",
    "lat": -35.18982,
    "lng": -58.2191402,
    "email": "info@oscarpourtau.com.ar",
    "phone": "(02223)444000 - (02223)445906",
    "type": "gestya"
  },
  {
    "name": "METALURGICA OLIVA HNOS SA",
    "state": "buenos-aires",
    "city": "burzaco",
    "address": "Cafferata Norte 3248",
    "lat": -34.8383385,
    "lng": -58.4261814,
    "type": "gestya"
  },
  {
    "name": "SANTAMARIA CECILIA GABRIELA",
    "state": "buenos-aires",
    "city": "campana",
    "address": "Yaquemé 1679",
    "lat": -34.1886765,
    "lng": -58.9438743,
    "email": "auxilios-lopez@hotmail.com",
    "phone": "(11)89485704",
    "type": "gestya"
  },
  {
    "name": "DIESEL CAÑUELAS S.A.",
    "state": "buenos-aires",
    "city": "canuelas",
    "address": "El Salvador 661",
    "lat": -35.032585,
    "lng": -58.73385219999999,
    "email": "dieselrepuestos@gmail.com",
    "phone": "(02226)563017",
    "type": "gestya"
  },
  {
    "name": "ELECTROMECANICA TANCREDE",
    "state": "buenos-aires",
    "city": "capitan-sarmiento",
    "address": "Santa Fe 1055",
    "lat": -34.168362,
    "lng": -59.78681340000001,
    "email": "electromecanicatancrede@gmail.com",
    "phone": "(02478)481429",
    "type": "gestya"
  },
  {
    "name": "MECANICA SUR",
    "state": "buenos-aires",
    "city": "carhue",
    "address": "Hipolito Yrigoyen 1178",
    "lat": -34.6036844,
    "lng": -58.3815591,
    "email": "mecanicasur@outlook.com",
    "phone": "(02923)15690419",
    "type": "gestya"
  },
  {
    "name": "DIESEL ADROVER",
    "state": "buenos-aires",
    "city": "carlos-casares",
    "address": "Acceso Roberto Mouras N° 290",
    "lat": -35.633901,
    "lng": -61.3554,
    "email": "dieseladrover@hotmail.com",
    "phone": "(02395)450964",
    "type": "gestya"
  },
  {
    "name": "ELECTRICIDAD DEL AUTOMOVIL BENETTI",
    "state": "buenos-aires",
    "city": "chacabuco",
    "address": "Moreno 299",
    "lat": -34.6393546,
    "lng": -60.465159,
    "email": "martinbenetti36@gmail.com",
    "phone": "(02352)429401",
    "type": "gestya"
  },
  {
    "name": "E.T TRANSPORTES S.A",
    "state": "buenos-aires",
    "city": "chacabuco",
    "address": "Hipolito Yrigoyen 505",
    "lat": -34.640077,
    "lng": -60.45700799999999,
    "email": "etrotta95@gmail.com",
    "phone": "(236)4410316",
    "type": "gestya"
  },
  {
    "name": "CHASCOBAT SA",
    "state": "buenos-aires",
    "city": "chascomus",
    "address": "Hipolito Irigoyen Y Chacabuco",
    "lat": -35.5703533,
    "lng": -58.01009449999999,
    "email": "proveedores@chascobat.com.ar",
    "phone": "(02241)423427",
    "type": "gestya"
  },
  {
    "name": "WALSH DANIEL OSCAR",
    "state": "buenos-aires",
    "city": "chivilcoy",
    "address": "Ruta 5 Km 157,500",
    "lat": -34.9178916,
    "lng": -59.9826843,
    "email": "danielowalsh@gmail.com",
    "phone": "(02346)434881",
    "type": "gestya"
  },
  {
    "name": "TALLERES ARGENTINOS DE SERVICIOS INDUSTRIALES S.A.",
    "state": "capital-federal",
    "city": "capital-federal",
    "address": "Viamonte 611 Piso:9 Dpto:A",
    "lat": -34.599830477551,
    "lng": -58.3755581591837,
    "email": "melina.aguero@tasisa.com.ar",
    "phone": "(11)37760571",
    "type": "gestya"
  },
  {
    "name": "FERRETERIA MAXI",
    "state": "buenos-aires",
    "city": "colon",
    "address": "Calle 21 N° 435",
    "lat": -33.8883521,
    "lng": -61.1023439,
    "email": "maxi_litta@hotmail.es",
    "phone": "(02473)423397",
    "type": "gestya"
  },
  {
    "name": "MARTINEZ CASTRO SRL",
    "state": "buenos-aires",
    "city": "comandante-nicanor-otamendi",
    "address": "Avenida Pueyrredon N° 2667",
    "lat": -38.1122339,
    "lng": -57.8456287,
    "email": "martinezcastroar@gmail.com",
    "phone": "(02291)480062",
    "type": "gestya"
  },
  {
    "name": "MACHICOTE AGUSTIN ENRIQUE",
    "state": "buenos-aires",
    "city": "coronel-charlone",
    "address": "Roque Sáenz Peña S/N",
    "lat": -34.6714581,
    "lng": -63.3704218,
    "email": "agustinmachocte@gmail.com",
    "phone": "(03388)490390",
    "type": "gestya"
  },
  {
    "name": "JV MECANICA ESPECIALIZADA",
    "state": "buenos-aires",
    "city": "coronel-pringles",
    "address": "Ruta 51 Y 85",
    "lat": -37.9852584,
    "lng": -61.3497918,
    "email": "juliovillanueva2003@yahoo.com.ar",
    "phone": "(2922)430569",
    "type": "gestya"
  },
  {
    "name": "PLAN B MAQUINARIAS",
    "state": "buenos-aires",
    "city": "coronel-pringles",
    "address": "Ruta P. N° 51 Km 614",
    "lat": -37.9852584,
    "lng": -61.3497918,
    "email": "planbmaquinarias@gmail.com",
    "phone": "(2922)431759",
    "type": "gestya"
  },
  {
    "name": "AR-GO S. CAP I SECC IV",
    "state": "buenos-aires",
    "city": "coronel-suarez",
    "address": "Av San Martin 979",
    "lat": -37.4702381,
    "lng": -61.9292621,
    "email": "argoshvigia@gmail.com",
    "phone": "(2926)498247",
    "type": "gestya"
  },
  {
    "name": "ELECTROMECANICA MONTERO",
    "state": "buenos-aires",
    "city": "daireaux",
    "address": "Acc. Jorge Carle 1150",
    "lat": -36.5932588,
    "lng": -61.7577521,
    "email": "eletromec@live.cl",
    "phone": "(02316)452832",
    "type": "gestya"
  },
  {
    "name": "MARTIN SILVIO JAVIER",
    "state": "buenos-aires",
    "city": "daireaux",
    "address": "Leloir Luis N° 56 Parque Industrial",
    "lat": -36.5994803,
    "lng": -61.7475931,
    "email": "ste_electricidad@hotmail.com",
    "phone": "(02314)15473831",
    "type": "gestya"
  },
  {
    "name": "TALLER LUJAN",
    "state": "buenos-aires",
    "city": "florencio-varela",
    "address": "Av. San Martin 229",
    "lat": -34.8123628,
    "lng": -58.39491779999999,
    "email": "tallerlujan@yahoo.com.ar",
    "phone": "(011)42106023",
    "type": "gestya"
  },
  {
    "name": "CMTRANS SOLUCIONES LOGISTICAS SRL",
    "state": "buenos-aires",
    "city": "francisco-alvarez",
    "address": "Los Tulipaneros 2547 ( Fco.Alvarez)",
    "lat": -34.626857,
    "lng": -58.862412,
    "type": "gestya"
  },
  {
    "name": "ELECTRO RIC-MAR",
    "state": "buenos-aires",
    "city": "general-arenales",
    "address": "Guido Spano 192",
    "lat": -34.3012573,
    "lng": -61.3070439,
    "email": "electroricmar@yahoo.com.ar",
    "phone": "(0236)154.593-353",
    "type": "gestya"
  },
  {
    "name": "ARRILLAGA CESAR EDUARDO",
    "state": "buenos-aires",
    "city": "general-belgrano",
    "address": "Calle 612 N° 2291",
    "lat": -35.7608006,
    "lng": -58.5129111,
    "email": "cesararrillaga@hotmail.com",
    "phone": "(02241)15677235",
    "type": "gestya"
  },
  {
    "name": "D&UREPUESTOS Y SERVICIOS",
    "state": "buenos-aires",
    "city": "general-hornos",
    "address": "Florentino Ameghino 342",
    "lat": -34.8935652,
    "lng": -58.9220662,
    "email": "durepuestosyservicios@gmail.com",
    "phone": "(011)75055339",
    "type": "gestya"
  },
  {
    "name": "AGUIRRE MIGUEL ANGEL",
    "state": "buenos-aires",
    "city": "general-lamadrid",
    "address": "R Peña 833",
    "lat": -37.2452174,
    "lng": -61.26083869999999,
    "phone": "(2284)471580",
    "type": "gestya"
  },
  {
    "name": "ESCOBAR LAURA PATRICIA DAIANA",
    "state": "buenos-aires",
    "city": "general-pinto",
    "address": "Malvinas Argentinas 750",
    "lat": -34.7616604,
    "lng": -61.8993238,
    "email": "escobarlaura276@gmail.com",
    "phone": "(2355)550032",
    "type": "gestya"
  },
  {
    "name": "MENTEGUIA HUGO MARCELO",
    "state": "buenos-aires",
    "city": "general-rodriguez",
    "address": "Vietma 85 - Galpón 1",
    "lat": -34.5921085,
    "lng": -58.9480282,
    "email": "hugomenteguia11@gmail.com",
    "phone": "(011)1532474797",
    "type": "gestya"
  },
  {
    "name": "VASSALLO JUAN MANUEL",
    "state": "buenos-aires",
    "city": "gobernador-castro",
    "address": "Belgrano 435",
    "lat": -33.6600019,
    "lng": -59.8699324,
    "email": "ssmanuelvassallo@gmail.com",
    "phone": "(03329)493705",
    "type": "gestya"
  },
  {
    "name": "ELECTRICIDAD OLAIZOLA",
    "state": "buenos-aires",
    "city": "junin",
    "address": "Ruta 188 Y Av. Libertad Km 156",
    "lat": -34.5591159,
    "lng": -60.9348191,
    "phone": "(2364)693544",
    "type": "gestya"
  },
  {
    "name": "ELECTROMECANICA RUTA 7",
    "state": "buenos-aires",
    "city": "junin",
    "address": "Dra Panizza De Gomez 240",
    "lat": -34.5985881,
    "lng": -60.97324949999999,
    "email": "gonzadipa@msn.com",
    "phone": "(0236)4446490",
    "type": "gestya"
  },
  {
    "name": "REFRIGERACION DEL NOROESTE SOCIEDAD DE LA SECCION IV LGS",
    "state": "buenos-aires",
    "city": "junin",
    "address": "Colectora Ruta 188 Km 160.5 0 - Entre Las Calles : Ameghino Y Almafuerte",
    "lat": -34.5934412,
    "lng": -60.9461678,
    "type": "gestya"
  },
  {
    "name": "OF EQUIPOS DE PROTECCION",
    "state": "buenos-aires",
    "city": "lanus",
    "address": "Humberto Primo 1773",
    "lat": -34.686696,
    "lng": -58.4085641,
    "email": "administracion@ofequipos.com",
    "phone": "(011)1560944123",
    "type": "gestya"
  },
  {
    "name": "DON TELMO",
    "state": "buenos-aires",
    "city": "la-plata",
    "address": "Camino Rivadavia 829",
    "lat": -34.884948,
    "lng": -57.94843030000001,
    "email": "info@dontelmo.com",
    "phone": "(0221)156178736",
    "type": "gestya"
  },
  {
    "name": "ELECTRICIDAD OVIDIO",
    "state": "buenos-aires",
    "city": "laprida",
    "address": "Mitre 928",
    "lat": -37.5445283,
    "lng": -60.7957676,
    "email": "ovi_c_18@hotmail.com",
    "phone": "(02284)15468737",
    "type": "gestya"
  },
  {
    "name": "ELECTROCAR",
    "state": "buenos-aires",
    "city": "las-flores",
    "address": "Ruta 3 Km.186.6",
    "lat": -36.0093554,
    "lng": -59.0658614,
    "email": "electrocar2005@yahoo.com.ar",
    "phone": "(02244)15424724",
    "type": "gestya"
  },
  {
    "name": "MALDONADO MARIANO RUBEN",
    "state": "buenos-aires",
    "city": "leandro-n-alem",
    "address": "Matheu 255",
    "lat": -34.5223824,
    "lng": -61.3957395,
    "email": "mrmaldonadogn155@yahoo.com.ar",
    "phone": "(0236)4491165",
    "type": "gestya"
  },
  {
    "name": "ELECTROMECANICA LEZAMA",
    "state": "buenos-aires",
    "city": "lezama",
    "address": "Blandenguez 180",
    "lat": -35.8764967,
    "lng": -57.8970105,
    "email": "electromecanicalezama@hotmail.com",
    "phone": "(02242)432522",
    "type": "gestya"
  },
  {
    "name": "MOTORPROT S.R.L",
    "state": "buenos-aires",
    "city": "libertad",
    "address": "Av. Eva Peron 3682",
    "lat": -34.6866982,
    "lng": -58.6851541,
    "email": "victorvacirca@hotmail.com",
    "phone": "0220 - 4941230 / 011  - 1553010376",
    "type": "gestya"
  },
  {
    "name": "BARNEIX DARIO EDUARDO",
    "state": "buenos-aires",
    "city": "lincoln",
    "address": "Ruta 188 Km 219,5",
    "lat": -34.836809,
    "lng": -61.5434235,
    "email": "dario_barneix@hotmail.com",
    "phone": "(02355)442914",
    "type": "gestya"
  },
  {
    "name": "TALLER MECANICO Y VENTAS DE REPUESTOS JOSE LUIS PEREZ",
    "state": "buenos-aires",
    "city": "lincoln",
    "address": "Suipacha 848",
    "lat": -34.8637222,
    "lng": -61.5432703,
    "email": "jlplincoln07@hotmail.com",
    "phone": "(02355)15646778",
    "type": "gestya"
  },
  {
    "name": "ELECTROMECANICA RAMON RAMIREZ",
    "state": "buenos-aires",
    "city": "loberia",
    "address": "Brandsen 545",
    "lat": -38.15574460000001,
    "lng": -58.7810449,
    "email": "ramaelec@hotmail.com",
    "phone": "(02262)15464363",
    "type": "gestya"
  },
  {
    "name": "IMPORTRADE S.A.",
    "state": "buenos-aires",
    "city": "lobos",
    "address": "Ruta 205 Km 96,500",
    "lat": -35.207099,
    "lng": -59.1047775,
    "email": "administracion@importrade.com.ar",
    "phone": "(02227)15629031 - (02227)15629029",
    "type": "gestya"
  },
  {
    "name": "SITA LEANDRO",
    "state": "buenos-aires",
    "city": "lomas-del-mirador",
    "address": "Taller Movil",
    "lat": -34.6663627,
    "lng": -58.5297986,
    "email": "leandrosita@gmail.com",
    "phone": "(011)1549935408",
    "type": "gestya"
  },
  {
    "name": "TALLER MARCELITO",
    "state": "buenos-aires",
    "city": "lujan",
    "address": "Ugarteche 819",
    "lat": -34.555249,
    "lng": -59.12710239999999,
    "email": "tallermarcelito@yahoo.com",
    "phone": "(02323)440386",
    "type": "gestya"
  },
  {
    "name": "VILAR JAVIER ENRIQUE",
    "state": "buenos-aires",
    "city": "lujan",
    "address": "Alfonsina Storni 3387",
    "lat": -34.5706611,
    "lng": -59.07840379999999,
    "email": "javierevilar_@hotmail.com",
    "phone": "(02323)15531677",
    "type": "gestya"
  },
  {
    "name": "ALBAITERO HNOS",
    "state": "buenos-aires",
    "city": "maipu",
    "address": "Lavalle 1224",
    "lat": -36.85725170000001,
    "lng": -57.8717881,
    "email": "ralbaitero@hotmail.com",
    "phone": "(02268)15519491",
    "type": "gestya"
  },
  {
    "name": "ELECTRICIDAD JOSE (DE JOSE CANELO E HIJOS)",
    "state": "buenos-aires",
    "city": "marcos-paz",
    "address": "Piedras 80",
    "lat": -34.7922709,
    "lng": -58.84522250000001,
    "email": "electricidadjose_80@hotmail.com",
    "phone": "(011)1556602217",
    "type": "gestya"
  },
  {
    "name": "ELECTRO LECUNA",
    "state": "buenos-aires",
    "city": "mar-de-ajo",
    "address": "Av. Libertador 1438",
    "lat": -36.7232497,
    "lng": -56.6750185,
    "email": "lecuclaudio@live.com.ar",
    "phone": "(02257)421356",
    "type": "gestya"
  },
  {
    "name": "AYG SERVICIOS",
    "state": "buenos-aires",
    "city": "mar-del-plata",
    "address": "Teodoro Bronzini 1525",
    "lat": -37.9816394,
    "lng": -57.57818959999999,
    "email": "aygtrucks.2020@gmail.com",
    "phone": "(0223)156877747",
    "type": "gestya"
  },
  {
    "name": "CENTRO BROWN",
    "state": "buenos-aires",
    "city": "mar-del-plata",
    "address": "Av. Champagnat 2079 - P.B.",
    "lat": -37.9838585,
    "lng": -57.5859125,
    "email": "centrobrown@gmail.com",
    "phone": "(0223)4789216",
    "type": "gestya"
  },
  {
    "name": "ELECTRICIDAD JAVIER",
    "state": "buenos-aires",
    "city": "mar-del-plata",
    "address": "Genova 6556",
    "lat": -38.0353013,
    "lng": -57.59155759999999,
    "email": "javiermolares@yahoo.com",
    "phone": "(0223)154006372",
    "type": "gestya"
  },
  {
    "name": "EQUIPOS DRAGONETTI",
    "state": "buenos-aires",
    "city": "mar-del-plata",
    "address": "Strobel 5250",
    "lat": -37.9708037,
    "lng": -57.56145819999999,
    "email": "ignaciodragonetti@hotmail.com",
    "phone": "(0223)4749809",
    "type": "gestya"
  },
  {
    "name": "NORBERTO DESIMONE",
    "state": "buenos-aires",
    "city": "mar-del-plata",
    "address": "Dellepiane 467",
    "lat": -38.0254199,
    "lng": -57.57079209999999,
    "email": "norbertodesimonemdp@gmail.com",
    "phone": "(0223)4823181",
    "type": "gestya"
  },
  {
    "name": "RAMÓN PAZ",
    "state": "buenos-aires",
    "city": "mar-del-plata",
    "address": "Avda. Luro 6974",
    "lat": -37.97664049999999,
    "lng": -57.5902275,
    "email": "ramonpazserviciooficial@gmail.com",
    "phone": "(0223)4770675",
    "type": "gestya"
  },
  {
    "name": "TECNICENTRO BATERIAS",
    "state": "buenos-aires",
    "city": "mar-del-plata",
    "address": "Avenida Colon 4768",
    "lat": -37.9925909,
    "lng": -57.5720848,
    "email": "tecnicentro_bateriasmateo@hotmail.com",
    "phone": "(0223)4726260",
    "type": "gestya"
  },
  {
    "name": "TRANSDAS",
    "state": "buenos-aires",
    "city": "matheu",
    "address": "Avenida Sarmiento 665",
    "lat": -34.379445,
    "lng": -58.82078269999999,
    "email": "gdsar@hotmail.com",
    "phone": "(348)154511443",
    "type": "gestya"
  },
  {
    "name": "GRUPOZZETTO S.A.",
    "state": "buenos-aires",
    "city": "mercado-central-tapiales",
    "address": "Av De Circunvalacion 2181",
    "lat": -34.7064195,
    "lng": -58.4974171,
    "email": "grupozzetto@gmail.com",
    "phone": "(011)40447563",
    "type": "gestya"
  },
  {
    "name": "LU - DA - CAR",
    "state": "buenos-aires",
    "city": "merlo",
    "address": "Boedo 40",
    "lat": -34.6666079,
    "lng": -58.74536020000001,
    "email": "ludacarmerlo@hotmail.com",
    "phone": "(011)1549278341",
    "type": "gestya"
  },
  {
    "name": "TALLER J.A.F.I.S.",
    "state": "buenos-aires",
    "city": "merlo",
    "address": "Av. Dr. Ricardo Balbín 7324",
    "lat": -34.7021238,
    "lng": -58.775378,
    "email": "taller_jafis@hotmail.com",
    "phone": "(0220)4991424",
    "type": "gestya"
  },
  {
    "name": "BRAVO JUAN RAMON",
    "state": "buenos-aires",
    "city": "miramar",
    "address": "Av 9 4587",
    "lat": -38.2703965,
    "lng": -57.83975249999999,
    "email": "jbravomecanicaagricola@hotmail.com",
    "phone": "(02291)431641",
    "type": "gestya"
  },
  {
    "name": "SERGIO CERIOTTI S.R.L.",
    "state": "buenos-aires",
    "city": "miramar",
    "address": "Avenida 9 Nro 4441",
    "lat": -34.6036844,
    "lng": -58.3815591,
    "email": "sergioceriotti@infovia.com.ar",
    "phone": "(02291) 430257",
    "type": "gestya"
  },
  {
    "name": "SALINAS DANIEL",
    "state": "buenos-aires",
    "city": "monte-grande",
    "address": "Dinamarca 185",
    "lat": -34.8230135,
    "lng": -58.4814099,
    "email": "danielsalinas.adm@gmail.com",
    "phone": "(011)1520774722",
    "type": "gestya"
  },
  {
    "name": "PROTECCION BLANCO",
    "state": "buenos-aires",
    "city": "moron",
    "address": "Cañada De Juan Ruiz 765",
    "lat": -34.6407754,
    "lng": -58.62410999999999,
    "email": "proteccionblanco@hotmail.com",
    "phone": "(11)44743585",
    "type": "gestya"
  },
  {
    "name": "BIANCHINI EDGARDO D",
    "state": "buenos-aires",
    "city": "munro",
    "address": "Baigorria 2219",
    "lat": -34.5329634,
    "lng": -58.5203132,
    "type": "gestya"
  },
  {
    "name": "MAPSA S.A.",
    "state": "buenos-aires",
    "city": "munro",
    "address": "Eduardo Sivori 4957",
    "lat": -34.5231335,
    "lng": -58.5253722,
    "email": "mapsa@mapsa1.com.ar",
    "phone": "(011)47623337",
    "type": "gestya"
  },
  {
    "name": "ELECTRICIDAD EL GALLEGUITO",
    "state": "buenos-aires",
    "city": "necochea",
    "address": "Calle 72 N° 1825",
    "lat": -38.5410874,
    "lng": -58.7357267,
    "email": "tomassantiago_39@hotmail.com",
    "phone": "(02262)429837",
    "type": "gestya"
  },
  {
    "name": "FRENCAN FRENOS",
    "state": "buenos-aires",
    "city": "necochea",
    "address": "Calle 575 N° 2663",
    "lat": -38.5544968,
    "lng": -58.73960879999999,
    "email": "frencamfrenos@gmail.com",
    "phone": "(2262)501802",
    "type": "gestya"
  },
  {
    "name": "REPUESTOS ANGELI",
    "state": "buenos-aires",
    "city": "nicanor-olivera",
    "address": "Calle 24 Nro. 921",
    "lat": -38.28016960000001,
    "lng": -59.2017704,
    "email": "repuestosangeli2016@hotmail.com",
    "phone": "(02262)15567841",
    "type": "gestya"
  },
  {
    "name": "ARMANDO MARTINIS S A",
    "state": "buenos-aires",
    "city": "olavarria",
    "address": "Aristóbulo Moya 2230",
    "lat": -36.9092252,
    "lng": -60.3128067,
    "email": "administracion@amartinis-sa.com.ar",
    "phone": "(02284)451644",
    "type": "gestya"
  },
  {
    "name": "BOJESEN, EDUARDO BALDOMERO",
    "state": "buenos-aires",
    "city": "olavarria",
    "address": "Av. Pringles 1423",
    "lat": -36.9069202,
    "lng": -60.3291581,
    "email": "electromecanicatito@hotmail.com",
    "phone": "(02284)424266",
    "type": "gestya"
  },
  {
    "name": "ELECTROMECANICA MORALES",
    "state": "buenos-aires",
    "city": "olavarria",
    "address": "Saenz Peña 1942",
    "lat": -36.8831722,
    "lng": -60.3234869,
    "email": "moralesedumar@hotmail.com",
    "phone": "(02284)442507",
    "type": "gestya"
  },
  {
    "name": "ELECTROMECANICA PELLEGRINI DE OCCHI Y OROQUIETA EDUARDO",
    "state": "buenos-aires",
    "city": "olavarria",
    "address": "Pellegrini 2355",
    "lat": -36.9088299,
    "lng": -60.3112226,
    "email": "electromecanica.pellegrini@hotmail.com",
    "phone": "(02284)452038",
    "type": "gestya"
  },
  {
    "name": "ELECTROMECANICA PLANES",
    "state": "buenos-aires",
    "city": "olavarria",
    "address": "Av Saavedra 2806",
    "lat": -36.8995392,
    "lng": -60.3152592,
    "email": "electromecanicaplanes@hotmail.com",
    "phone": "(02284)421850",
    "type": "gestya"
  },
  {
    "name": "TALLER AVENIDA",
    "state": "buenos-aires",
    "city": "olavarria",
    "address": "Ruta Provincial 51 450",
    "lat": -36.9409793,
    "lng": -60.23683579999999,
    "type": "gestya"
  },
  {
    "name": "TRUCK VIAL",
    "state": "buenos-aires",
    "city": "olavarria",
    "address": "Av Colon 5735",
    "lat": -36.9093362,
    "lng": -60.293729,
    "email": "truck-vial@hotmail.com",
    "phone": "(02284)410627",
    "type": "gestya"
  },
  {
    "name": "GERSTNER CESAR SIMON",
    "state": "buenos-aires",
    "city": "pedernales",
    "address": "Rio Negro Y San Martin 0",
    "lat": -34.6036844,
    "lng": -58.3815591,
    "phone": "(02345)15512061",
    "type": "gestya"
  },
  {
    "name": "AL ELECTRONICA",
    "state": "buenos-aires",
    "city": "pehuajo",
    "address": "Guemes 520",
    "lat": -35.8149096,
    "lng": -61.9089216,
    "email": "electon73@gmail.com",
    "phone": "(02396)15610310",
    "type": "gestya"
  },
  {
    "name": "HECTOR PAJOT",
    "state": "buenos-aires",
    "city": "pellegrini",
    "address": "25 De Mayo 456",
    "lat": -36.2662166,
    "lng": -63.15992749999999,
    "email": "mauripajot@hotmail.com.ar",
    "phone": "(02392)15621283",
    "type": "gestya"
  },
  {
    "name": "CARDENAS LEANDRO ROMAN",
    "state": "buenos-aires",
    "city": "pergamino",
    "address": "Taller Móvil",
    "lat": -33.9009064,
    "lng": -60.5532973,
    "type": "gestya"
  },
  {
    "name": "CERMINARA MARIANO ANDRES",
    "state": "buenos-aires",
    "city": "pergamino",
    "address": "Ruta 8 Km 226,200 - Esquina San Nicolas",
    "lat": -33.89126,
    "lng": -60.571483,
    "email": "cerminaram@hotmail.com",
    "phone": "(02477)15311867",
    "type": "gestya"
  },
  {
    "name": "ELECTROMECANICA CARLOS DALLE RIVE",
    "state": "buenos-aires",
    "city": "pergamino",
    "address": "Bv. Paraguay 1440",
    "lat": -33.8805726,
    "lng": -60.5759659,
    "email": "electrodallerive@hotmail.com",
    "phone": "2477-567320",
    "type": "gestya"
  },
  {
    "name": "MOTOR GAS S.A.",
    "state": "buenos-aires",
    "city": "pergamino",
    "address": "Florida 815 Piso:9 Dpto:A - Barrio : Centro",
    "lat": -33.8966125,
    "lng": -60.5764601,
    "email": "motorgaspergamino@gmail.com",
    "type": "gestya"
  },
  {
    "name": "MELLA AUTOMOTORES",
    "state": "buenos-aires",
    "city": "pigue",
    "address": "Avellaneda 445",
    "lat": -37.5965992,
    "lng": -62.4079674,
    "email": "francoroppel@gmail.com",
    "phone": "(02923)472440",
    "type": "gestya"
  },
  {
    "name": "TECNOALFA AUTOMOTOR",
    "state": "buenos-aires",
    "city": "pigue",
    "address": "Martinez De Hoz 505",
    "lat": -37.5952934,
    "lng": -62.4075538,
    "email": "ventas.tecnoalfa@gmail.com",
    "phone": "(02923)404256",
    "type": "gestya"
  },
  {
    "name": "CARLOS MACEIRA SERVICIOS",
    "state": "buenos-aires",
    "city": "pila",
    "address": "Avda Gral. Belgrano Nº320",
    "lat": -35.7657442,
    "lng": -58.4971957,
    "email": "camaceira@yahoo.com.ar",
    "phone": "(02241)15673147",
    "type": "gestya"
  },
  {
    "name": "ELECTRICIDAD BAIARDI",
    "state": "buenos-aires",
    "city": "pilar",
    "address": "Ruta 8 Y Rauch",
    "lat": -34.4542576,
    "lng": -58.83774330000001,
    "email": "electricidadbaiardi@hotmail.com",
    "phone": "(0230)4644710",
    "type": "gestya"
  },
  {
    "name": "SARMIENTO RAFAEL",
    "state": "buenos-aires",
    "city": "pinamar",
    "address": "Del Cangrejo 1525",
    "lat": -37.1073363,
    "lng": -56.8680306,
    "email": "vigipinamar@hotmail.com",
    "phone": "(02254)405855",
    "type": "gestya"
  },
  {
    "name": "ELECTROMECANICA ARISTA",
    "state": "buenos-aires",
    "city": "quequen",
    "address": "Av. Circunvalación 3655",
    "lat": -38.5318345,
    "lng": -58.7018809,
    "email": "electro.arista@hotmail.com",
    "phone": "(02262)15486018 - (02262)15556353",
    "type": "gestya"
  },
  {
    "name": "OCAMPO RUBEN",
    "state": "buenos-aires",
    "city": "quilmes",
    "address": "Intendente Olivieri 544",
    "lat": -34.72224509999999,
    "lng": -58.2695223,
    "email": "ocampo_taller@hotmail.com",
    "phone": "(011)42244140",
    "type": "gestya"
  },
  {
    "name": "TALLER YANI",
    "state": "buenos-aires",
    "city": "quilmes",
    "address": "Av. Rodolfo Lopez 1053",
    "lat": -34.7248016,
    "lng": -58.2742119,
    "email": "talleryani@gmail.com",
    "phone": "(011)42087176",
    "type": "gestya"
  },
  {
    "name": "DOÑA CHELETA SA",
    "state": "buenos-aires",
    "city": "ramallo",
    "address": "Taller Movil",
    "lat": -33.4850695,
    "lng": -60.0045531,
    "email": "sdigrazia@digraziahnos.com.ar",
    "type": "gestya"
  },
  {
    "name": "SARTORI JAVIER GERMAN",
    "state": "buenos-aires",
    "city": "rojas",
    "address": "Ruta Nac 31 S/N Y Av.Carlos Pellegrini",
    "lat": -34.1901614,
    "lng": -60.7258194,
    "email": "javigsartori@hotmail.com",
    "phone": "(2475)416050",
    "type": "gestya"
  },
  {
    "name": "BG REPUESTOS",
    "state": "buenos-aires",
    "city": "roque-perez",
    "address": "Ruta Nac 205 Y Acceso Pedro Gutierrez 205",
    "lat": -34.607357,
    "lng": -58.454595,
    "email": "bgr_repuestos@hotmail.com",
    "phone": "(02227)468612",
    "type": "gestya"
  },
  {
    "name": "CENTRO DIESEL",
    "state": "buenos-aires",
    "city": "saladillo",
    "address": "Ruta Nac 205 2366",
    "lat": -35.6243558,
    "lng": -59.7768513,
    "email": "centrodieselrotondasaladillo@gmail.com",
    "phone": "(02344)455224",
    "type": "gestya"
  },
  {
    "name": "TALLER ELECTROMECANICO MIGUEZ",
    "state": "buenos-aires",
    "city": "salazar",
    "address": "San Lorenzo 322",
    "lat": -36.3076574,
    "lng": -62.2016004,
    "email": "electromecanicamiguez@hotmail.com",
    "phone": "(02393)492043",
    "type": "gestya"
  },
  {
    "name": "AUTOAUDIO",
    "state": "buenos-aires",
    "city": "salto",
    "address": "Tristan Lobos 179",
    "lat": -34.3030712,
    "lng": -60.2499055,
    "email": "autoaudio@hotmail.com.ar",
    "phone": "(02474)423735",
    "type": "gestya"
  },
  {
    "name": "NEUMATICO VISSANI",
    "state": "buenos-aires",
    "city": "salto",
    "address": "Antartida Argentina 505",
    "lat": -34.3098007,
    "lng": -60.2452028,
    "email": "vissanihnos@gmail.com",
    "phone": "(02474)683926",
    "type": "gestya"
  },
  {
    "name": "DIESEL TRAVERSO",
    "state": "buenos-aires",
    "city": "san-andres-de-giles",
    "address": "San Lorenzo Y Malvinas Argentinas",
    "lat": -34.447753,
    "lng": -59.441295,
    "email": "dieseltraverso@hotmail.com",
    "phone": "(02325)443-516",
    "type": "gestya"
  },
  {
    "name": "SERVICIOS LUCIO SA",
    "state": "buenos-aires",
    "city": "san-andres-de-giles",
    "address": "Pichetto 444",
    "lat": -34.4489861,
    "lng": -59.4547571,
    "type": "gestya"
  },
  {
    "name": "STEFANO BRUNO",
    "state": "buenos-aires",
    "city": "san-cayetano",
    "address": "25 De Mayo N° 38",
    "lat": -38.3432397,
    "lng": -59.6114468,
    "email": "elect.bruno@yahoo.com.ar",
    "phone": "(02983)441378",
    "type": "gestya"
  },
  {
    "name": "ELECTROMECANICA CLIMENT FERNANDO",
    "state": "buenos-aires",
    "city": "san-manuel",
    "address": "Lisandro De La Torre 45",
    "lat": -37.7926215,
    "lng": -58.849465,
    "email": "fernandocliment68@gmail.com",
    "phone": "(02261)498059",
    "type": "gestya"
  },
  {
    "name": "ALL TUNING MONTE S.A",
    "state": "buenos-aires",
    "city": "san-miguel-del-monte",
    "address": "Ruta Nacional 3 Km 111",
    "lat": -35.4353695,
    "lng": -58.8170677,
    "email": "alltuningmonte@hotmail.com",
    "phone": "(02271)443429",
    "type": "gestya"
  },
  {
    "name": "CLIMATIZADORES SAN NICOLAS SA",
    "state": "buenos-aires",
    "city": "san-nicolas",
    "address": "Colectora 53 Y Autopista Km 231",
    "lat": -34.6305979,
    "lng": -58.5617701,
    "email": "climatizadoressannicolas@gmail.com",
    "type": "gestya"
  },
  {
    "name": "TALLER EL ALEMAN",
    "state": "buenos-aires",
    "city": "san-nicolas",
    "address": "Luis Viale 351",
    "lat": -33.3256137,
    "lng": -60.23295519999999,
    "email": "sntrenkner@gmail.com",
    "phone": "(3364)185778",
    "type": "gestya"
  },
  {
    "name": "BIANCHINI DANIEL HERNAN",
    "state": "buenos-aires",
    "city": "san-pedro",
    "address": "Juan B Justo 255",
    "lat": -33.6931365,
    "lng": -59.675218,
    "email": "dhbianchini@hotmail.com",
    "phone": "(03329)15595132",
    "type": "gestya"
  },
  {
    "name": "ELECTRONICA MONTIEL",
    "state": "buenos-aires",
    "city": "tandil",
    "address": "Colectora Norte L.M. Macaya 1055",
    "lat": -37.3106523,
    "lng": -59.1142671,
    "email": "electronicamontiel2018@gmail.com",
    "phone": "(0249)4422170",
    "type": "gestya"
  },
  {
    "name": "GALLEGO JOSE ANDRES",
    "state": "buenos-aires",
    "city": "tandil",
    "address": "América S/N",
    "lat": -37.3287999,
    "lng": -59.1367167,
    "email": "andres.servitrac@gmail.com",
    "phone": "(0249)154673150",
    "type": "gestya"
  },
  {
    "name": "TALLER G&G",
    "state": "buenos-aires",
    "city": "temperley",
    "address": "Alemania 2478",
    "lat": -34.7678337,
    "lng": -58.3792534,
    "email": "gastonalonso@live.com.ar",
    "phone": "(011)15-5014-6523",
    "type": "gestya"
  },
  {
    "name": "CAMILO ELECTROMECANICA",
    "state": "buenos-aires",
    "city": "tornquist",
    "address": "Moreno 770",
    "lat": -38.0987358,
    "lng": -62.2236252,
    "email": "camiloelectricidad@hotmail.com",
    "phone": "(0291)4940925",
    "type": "gestya"
  },
  {
    "name": "ADHEMAR GONZALEZ",
    "state": "buenos-aires",
    "city": "trenque-lauquen",
    "address": "Arrastua 336",
    "lat": -35.9808876,
    "lng": -62.73189910000001,
    "email": "ro-ma-lu@hotmail.com",
    "phone": "(02392)425723",
    "type": "gestya"
  },
  {
    "name": "RAMIREZ ABEL HORACIO",
    "state": "buenos-aires",
    "city": "trenque-lauquen",
    "address": "La Correcta Es Acceso Av. García Salinas 1370",
    "lat": -35.9826258,
    "lng": -62.7262981,
    "email": "abelhramirez@hotmail.com",
    "phone": "(02392)412567",
    "type": "gestya"
  },
  {
    "name": "TALLER LA ESTRELLA",
    "state": "buenos-aires",
    "city": "trenque-lauquen",
    "address": "Ruta 33 Km 325",
    "lat": -36.0048452,
    "lng": -62.7559825,
    "email": "eltallerlaestrella@gmail.com",
    "phone": "(02392)15541624 - (02392)15510704",
    "type": "gestya"
  },
  {
    "name": "ASTIZ MARIO MAQUINARIAS",
    "state": "buenos-aires",
    "city": "tres-arroyos",
    "address": "Ruta 228 Km 134,5",
    "lat": -38.3713765,
    "lng": -60.2632418,
    "email": "marioastizmaquinarias@gmail.com",
    "phone": "(02983)15618405 - (02983)15619796",
    "type": "gestya"
  },
  {
    "name": "DE LA CAL FRANCISCO",
    "state": "buenos-aires",
    "city": "tres-arroyos",
    "address": "Av. Olivero 675",
    "lat": -38.3640731,
    "lng": -60.2723043,
    "email": "delacalfrancisco@gmail.com",
    "phone": "(02983)422647",
    "type": "gestya"
  },
  {
    "name": "MIGUEL MANSO",
    "state": "buenos-aires",
    "city": "tres-arroyos",
    "address": "Av. Olivero 447",
    "lat": -38.36564509999999,
    "lng": -60.2702876,
    "email": "miguelamanso@yahoo.com.ar",
    "phone": "(02983)423228",
    "type": "gestya"
  },
  {
    "name": "REPUESTOS LUCHY",
    "state": "buenos-aires",
    "city": "vicuna-mackenna",
    "address": "Av Carlos S Y De Nro 1198",
    "lat": -34.5822587,
    "lng": -58.3827833,
    "email": "luchyrepuestos@gmail.com",
    "phone": "(03583)484145",
    "type": "gestya"
  },
  {
    "name": "SABA EVELYN GISELLE",
    "state": "buenos-aires",
    "city": "villa-adelina-(vicente-lopez)",
    "address": "El Resero 569",
    "lat": -34.5156288,
    "lng": -58.5353322,
    "email": "veropalakar@gmail.com",
    "phone": "(11)30281749",
    "type": "gestya"
  },
  {
    "name": "INTEGRAL RAMALLO SRL",
    "state": "buenos-aires",
    "city": "villa-ramallo",
    "address": "Av Daniel Dusso 550",
    "lat": -33.5049014,
    "lng": -60.04705550000001,
    "email": "intramallosrl@yahoo.com.ar",
    "phone": "(0221)155229016",
    "type": "gestya"
  },
  {
    "name": "RAMINI JOSE MARIA",
    "state": "buenos-aires",
    "city": "villa-ramallo",
    "address": "Avenida Dusso 528",
    "lat": -33.5047855,
    "lng": -60.0471936,
    "email": "raminijosemaria@gmail.com",
    "phone": "(3329)473955",
    "type": "gestya"
  },
  {
    "name": "GRUPO BLM SRL",
    "state": "buenos-aires",
    "city": "zarate",
    "address": "Avda. Anta 1150",
    "lat": -34.0919721,
    "lng": -59.04120169999999,
    "email": "grupoblmzar@hotmail.com.ar",
    "phone": "(03487)436101",
    "type": "gestya"
  },
  {
    "name": "ORSI MAQUINARIAS 25 SA",
    "state": "buenos-aires",
    "city": "25-de-mayo",
    "address": "Acceso Moisés Lebensohn 2628",
    "lat": -35.4280774,
    "lng": -60.1397607,
    "phone": "(02345)462644",
    "type": "gestya"
  },
  {
    "name": "GARCIA HNOS",
    "state": "buenos-aires",
    "city": "30-de-agosto",
    "address": "Fray Justo Sta Maria De Oro 258",
    "lat": -36.2834154,
    "lng": -62.54894059999999,
    "email": "garciahermanos@cetl.com.ar",
    "phone": "(02392)471461",
    "type": "gestya"
  },
  {
    "name": "ELECTROMECANICA ANCA",
    "state": "buenos-aires",
    "city": "9-de-julio",
    "address": "Arturo Frondizi 80",
    "lat": -35.4225091,
    "lng": -60.8955023,
    "email": "ancayanca@hotmail.com",
    "phone": "(02317)523255",
    "type": "gestya"
  },
  {
    "name": "BURGWARDT Y CIA S A INDUSTRIAL COMERCIAL Y AGRO GANADERA",
    "state": "capital-federal",
    "city": "capital-federal",
    "address": "Alem Leandro N. 690 P8",
    "lat": -34.5997226367347,
    "lng": -58.3709618836735,
    "type": "gestya"
  },
  {
    "name": "CAPORALETTI CARLOS ALBERTO",
    "state": "capital-federal",
    "city": "capital-federal",
    "address": "Taller Movil",
    "lat": -34.6036844,
    "lng": -58.3815591,
    "email": "charlyluro@yahoo.com.ar",
    "phone": "(011)1554090815",
    "type": "gestya"
  },
  {
    "name": "CASTRO ELECTROMECANICA S.A.",
    "state": "capital-federal",
    "city": "capital-federal",
    "address": "Matanza 2714",
    "lat": -34.6036844,
    "lng": -58.3815591,
    "email": "info@bateriascastro.com.ar",
    "phone": "(011)1532323993",
    "type": "gestya"
  },
  {
    "name": "GENERAL TAC",
    "state": "capital-federal",
    "city": "capital-federal",
    "address": "Virrey Aviles 3315",
    "lat": -34.5744504,
    "lng": -58.4596235,
    "email": "info@generaltac.com.ar",
    "phone": "(011)45518853",
    "type": "gestya"
  },
  {
    "name": "SILTAC S.R.L.",
    "state": "capital-federal",
    "city": "capital-federal",
    "address": "Alagon 493/95",
    "lat": -34.740653,
    "lng": -58.6330373,
    "email": "siltac@ciudad.com.ar",
    "phone": "(011)49233650",
    "type": "gestya"
  },
  {
    "name": "SISTEMAS BERKO S R L",
    "state": "capital-federal",
    "city": "capital-federal",
    "address": "Taller Movil",
    "lat": -34.6036844,
    "lng": -58.3815591,
    "email": "info@sistemasberko.com.ar",
    "phone": "(011)1557940123",
    "type": "gestya"
  },
  {
    "name": "EL PRODUCTOR SA",
    "state": "catamarca",
    "city": "sumalao",
    "address": "Ruta 33 Km 2 Valle Viejo",
    "lat": -28.4682377,
    "lng": -65.7335672,
    "email": "roxana.campos@elproductor-sa.com.ar",
    "phone": "(0383)15442947",
    "type": "gestya"
  },
  {
    "name": "INSELL CHARATA",
    "state": "chaco",
    "city": "charata",
    "address": "Ruta 89 Km 248",
    "lat": -27.2179902,
    "lng": -61.18736169999999,
    "email": "charata@insellreconquista.com.ar;eldo@insellreconquista.com.ar",
    "phone": "(03482)422022",
    "type": "gestya"
  },
  {
    "name": "INSELL CHARATA",
    "state": "chaco",
    "city": "charata",
    "address": "Ruta 89 Km 248",
    "lat": -27.2179902,
    "lng": -61.18736169999999,
    "email": "eldo@insellreconquista.com.ar;charata@insellreconquista.com.ar",
    "phone": "(03731)15620950",
    "type": "gestya"
  },
  {
    "name": "TALLER DE DANTE A GORT",
    "state": "chaco",
    "city": "gancedo",
    "address": "Valenzuela Y Entre Rios",
    "lat": -27.4886171,
    "lng": -61.6749147,
    "email": "dantegort@gmail.com",
    "phone": "(03731)491137",
    "type": "gestya"
  },
  {
    "name": "DIOMEDI UBALDO JAVIER",
    "state": "chaco",
    "city": "general-pinedo",
    "address": "Calle 8 Acceso Ruta 89",
    "lat": -27.3356095,
    "lng": -61.2752636,
    "email": "ubaldojdiomedi@gmail.com",
    "phone": "(03731)480923",
    "type": "gestya"
  },
  {
    "name": "DON OSCAR REPUESTOS",
    "state": "chaco",
    "city": "hermoso-campo",
    "address": "Av. Lavalle S/N",
    "lat": -27.615516,
    "lng": -61.340437,
    "email": "alarcon_hnos18@hotmail.com",
    "phone": "(03735)15630991",
    "type": "gestya"
  },
  {
    "name": "RESLER ISMAEL VICTOR",
    "state": "chaco",
    "city": "juan-jose-castelli",
    "address": "Dr.Maradona 132 - Barrio : Norte",
    "lat": -26.4019768,
    "lng": -61.4156138,
    "email": "reslerismael2016@gmail.com",
    "type": "gestya"
  },
  {
    "name": "MUÑOZ DAMIAN LEONARDO",
    "state": "chaco",
    "city": "las-brenas",
    "address": "Peron Y Ruta 89",
    "lat": -27.1042157,
    "lng": -61.0706489,
    "email": "damian_23_ys@hotmail.com",
    "phone": "(3731)458654",
    "type": "gestya"
  },
  {
    "name": "SWISTONIUK FRANCISCO ALEJANDRO",
    "state": "chaco",
    "city": "las-brenas",
    "address": "Fuerte Esperanza 1258",
    "lat": -27.0982924,
    "lng": -61.0806723,
    "email": "swistoniukfrancisco@yahoo.com.ar",
    "phone": "(03731)462487",
    "type": "gestya"
  },
  {
    "name": "MARTINEZ ARIEL OMAR",
    "state": "chaco",
    "city": "pampa-del-infierno",
    "address": "Av San Martin Y Abertman 0",
    "lat": -26.5079857,
    "lng": -61.17573549999999,
    "email": "ariel-pampadel@hotmail.com",
    "phone": "(0364)154549422",
    "type": "gestya"
  },
  {
    "name": "BOBADILLA JAQUELIN EDITH",
    "state": "chaco",
    "city": "presidencia-roque-saenz-pena",
    "address": "Ruta 16 Y Calle 214",
    "lat": -26.7998697,
    "lng": -60.4277893,
    "type": "gestya"
  },
  {
    "name": "VICTOR MATIAS MARIANO",
    "state": "chaco",
    "city": "presidencia-roque-saenz-pena",
    "address": "Ruta Nacional 16 Altura 180 180 M:01 - No Determinado",
    "lat": -26.78057365,
    "lng": -60.4535060486006,
    "type": "gestya"
  },
  {
    "name": "CENTRO DE SERVICIOS NORTE S.R.L.",
    "state": "chaco",
    "city": "resistencia",
    "address": "1º De Mayo 2445",
    "lat": -27.4438287,
    "lng": -59.0202028,
    "email": "administracion@csnorte.com.ar;resistencia@csnorte.com.ar",
    "phone": "(0362)4487430",
    "type": "gestya"
  },
  {
    "name": "LUCHAVA REPUESTOS",
    "state": "chaco",
    "city": "santa-sylvina",
    "address": "Coronel Monteagudo 46",
    "lat": -27.8410294,
    "lng": -61.1419124,
    "email": "enriluchava12@gmail.com",
    "phone": "(03735)492778",
    "type": "gestya"
  },
  {
    "name": "TOMASZUK CARLOS ARIEL",
    "state": "chaco",
    "city": "villa-angela",
    "address": "Balcarce 277 - Entre Las Calles : Rivadavia Y Belgrano",
    "lat": -27.5768225,
    "lng": -60.7112067,
    "email": "catomaszuk22@gmail.com",
    "phone": "(3735)464777 - (3735)420489",
    "type": "gestya"
  },
  {
    "name": "GOLD TRUCKS",
    "state": "chubut",
    "city": "comodoro",
    "address": "Calle 3435 N°301, Esquina Calle 3439, Barrio El Atardecer",
    "lat": -45.86667,
    "lng": -67.5,
    "email": "oscar.fede@gold-trucks.com",
    "phone": "(297)5376126",
    "type": "gestya"
  },
  {
    "name": "BROLLO ORESTE SA",
    "state": "chubut",
    "city": "comodoro-rivadavia",
    "address": "Manuel De Arburua 3197",
    "lat": -45.8855793,
    "lng": -67.5237463,
    "phone": "(0297)4484842",
    "type": "gestya"
  },
  {
    "name": "BUNY RESPUESTOS Y SERVICIOS",
    "state": "chubut",
    "city": "puerto-madryn",
    "address": "Tierra Del Fuego 875",
    "lat": -42.7805515,
    "lng": -65.05212709999999,
    "email": "tallerbuny@hotmail.com",
    "phone": "(2804)585511",
    "type": "gestya"
  },
  {
    "name": "EL TENAZ SRL",
    "state": "chubut",
    "city": "puerto-madryn",
    "address": "Juan B Justo 572",
    "lat": -42.7723533,
    "lng": -65.0405799,
    "email": "eltenazmichelinadmin@laugroup.com.ar",
    "phone": "(0280)4474116",
    "type": "gestya"
  },
  {
    "name": "TALLER PALAVECINO",
    "state": "chubut",
    "city": "puerto-madryn",
    "address": "9 De Julio 1356",
    "lat": -42.7739722,
    "lng": -65.05045849999999,
    "email": "pala_guille@hotmail.com",
    "phone": "(0280)154220153",
    "type": "gestya"
  },
  {
    "name": "ZANET S.A.",
    "state": "chubut",
    "city": "puerto-madryn",
    "address": "Ruta Nac 3 Km 1389",
    "lat": -42.6993146,
    "lng": -65.10243,
    "email": "rpye@laugroup.com.ar",
    "phone": "(0280)4452152",
    "type": "gestya"
  },
  {
    "name": "DISTRIBUIDORA ALBATROS",
    "state": "chubut",
    "city": "rawson",
    "address": "Belgrano 394",
    "lat": -43.2987245,
    "lng": -65.1008732,
    "email": "donoso1977@hotmail.com",
    "phone": "(0280)4483528",
    "type": "gestya"
  },
  {
    "name": "GDG",
    "state": "chubut",
    "city": "sarmiento",
    "address": "Av San Martin 143",
    "lat": -45.5925811,
    "lng": -69.06928409999999,
    "email": "gdgelec2000@gmail.com",
    "phone": "(2974)739040",
    "type": "gestya"
  },
  {
    "name": "CHUBUT REPUESTOS SAS",
    "state": "chubut",
    "city": "trelew",
    "address": "Ruta 3 Km 1453",
    "lat": -43.2876374,
    "lng": -65.26537200000002,
    "email": "chubutrepuestos@gmail.com",
    "phone": "(2804)382919 - (2804)558563",
    "type": "gestya"
  },
  {
    "name": "DIESEL LUCAS",
    "state": "chubut",
    "city": "trelew",
    "address": "Moreno 2350",
    "lat": -43.2676019,
    "lng": -65.2828245,
    "email": "info@diesellucas.com",
    "phone": "(0280)4443870",
    "type": "gestya"
  },
  {
    "name": "MATTANA HECTOR ALCIDES",
    "state": "cordoba",
    "city": "adelia-maria",
    "address": "Urquiza 1135",
    "lat": -33.6365279,
    "lng": -64.0237355,
    "email": "alcidesmattana@amaria.com.ar",
    "phone": "(03585)421516 / 422395",
    "type": "gestya"
  },
  {
    "name": "ELECTRICIDAD NITRO",
    "state": "cordoba",
    "city": "alcira-gigena",
    "address": "Sarmiento 535",
    "lat": -32.752831,
    "lng": -64.3373476,
    "email": "faricellinitro@hotmail.com.ar",
    "phone": "(0358)4961580",
    "type": "gestya"
  },
  {
    "name": "GONZALEZ ALBERTO Y JAVIER",
    "state": "cordoba",
    "city": "alejo-ledesma",
    "address": "Avenida Eduardo Duffy 149",
    "lat": -33.3570747,
    "lng": -63.7170178,
    "phone": "(0358)4980189",
    "type": "gestya"
  },
  {
    "name": "BERNARDI JORGE ANTONIO",
    "state": "cordoba",
    "city": "alicia",
    "address": "Corrientes 974",
    "lat": -31.9377152,
    "lng": -62.4675654,
    "email": "bernardialicia974@gmail.com",
    "phone": "(03533)496284",
    "type": "gestya"
  },
  {
    "name": "DARDO CIRIONE",
    "state": "cordoba",
    "city": "alta-gracia",
    "address": "Taller Móvil",
    "lat": -31.6566734,
    "lng": -64.41539900000001,
    "email": "dardocirione@hotmail.com",
    "phone": "(03547)421514",
    "type": "gestya"
  },
  {
    "name": "GUELFI LUIS MARIA RAUL",
    "state": "cordoba",
    "city": "arias",
    "address": "Jujuy 836",
    "lat": -33.639714,
    "lng": -62.4002942,
    "email": "Luchoguelfi@gmail.com",
    "phone": "(03468)15415534",
    "type": "gestya"
  },
  {
    "name": "CARNERO ROBERTO LEONARDO",
    "state": "cordoba",
    "city": "arroyito",
    "address": "Ignacio Ripol 207",
    "lat": -31.4128287,
    "lng": -63.0495249,
    "email": "lc_service@hotmail.com",
    "phone": "(03576)423102",
    "type": "gestya"
  },
  {
    "name": "ELECTROTECNICA PRESUTTI",
    "state": "cordoba",
    "city": "bell-ville",
    "address": "Bv. Ascasubi 1443",
    "lat": -32.6118053,
    "lng": -62.6877507,
    "email": "presuttijose@arnetbiz.com.ar",
    "phone": "(03537)423380",
    "type": "gestya"
  },
  {
    "name": "ACCOTTO JONATAN YAMIL",
    "state": "cordoba",
    "city": "berrotaran",
    "address": "Mariano Moreno 703",
    "lat": -31.4200916,
    "lng": -64.2004529,
    "email": "jonatanaccotto@hotmail.com",
    "phone": "(0358)154384932",
    "type": "gestya"
  },
  {
    "name": "ELECTRICIDAD INGARAMO",
    "state": "cordoba",
    "city": "brinkmann",
    "address": "Armando Bo 785",
    "lat": -30.8705647,
    "lng": -62.03038299999999,
    "email": "elec_ingaramo@hotmail.com",
    "phone": "(03562)480513",
    "type": "gestya"
  },
  {
    "name": "ELECTROMECANICA MASERA",
    "state": "cordoba",
    "city": "calchin",
    "address": "Av. Pte Perón 1059 (Ruta 13)",
    "lat": -31.6422177,
    "lng": -63.34988209999999,
    "email": "electromecanicamasera@live.com.ar",
    "phone": "(03573)497256",
    "type": "gestya"
  },
  {
    "name": "BELLI CARLOS DANIEL",
    "state": "cordoba",
    "city": "camilo-aldao",
    "address": "Urquiza 546",
    "lat": -33.1298193,
    "lng": -62.0931685,
    "type": "gestya"
  },
  {
    "name": "PREZ PANUNTIN PABLO NICOLAS",
    "state": "cordoba",
    "city": "colonia-caroya",
    "address": "Av San Martin 5341",
    "lat": -31.0329768,
    "lng": -64.04809089999999,
    "email": "prezyasociados@gmail.com",
    "phone": "(03525)15433946",
    "type": "gestya"
  },
  {
    "name": "ARMANDO DEL RIO SA",
    "state": "cordoba",
    "city": "cordoba",
    "address": "Av. Juan B. Justo 5181",
    "lat": -31.3627789,
    "lng": -64.1760209,
    "email": "mpavone@armandodelrio.com.ar",
    "phone": "(0351)4708080",
    "type": "gestya"
  },
  {
    "name": "CRISTIAN ELECTRICIDAD SERVICIO PESADO",
    "state": "cordoba",
    "city": "cordoba",
    "address": "Ruta N° 19 4500",
    "lat": -31.3947367,
    "lng": -64.0973514,
    "email": "cristianroblesm41@gmail.com",
    "phone": "(0351)153306439",
    "type": "gestya"
  },
  {
    "name": "CUGAT SERVICIOS ESPECIALES",
    "state": "cordoba",
    "city": "cordoba",
    "address": "Av. Las Malvinas 1479",
    "lat": -31.3931377,
    "lng": -64.15207219999999,
    "email": "cugatservicios@hotmail.com",
    "phone": "(0351)4515141",
    "type": "gestya"
  },
  {
    "name": "LANIN PROTECCIONES",
    "state": "cordoba",
    "city": "cordoba",
    "address": "Taller Movil",
    "lat": -31.4493104,
    "lng": -64.1812084,
    "email": "laninprotecciones@yahoo.com.ar",
    "phone": "(0351)156834640",
    "type": "gestya"
  },
  {
    "name": "LOZA JOSE RAMON",
    "state": "cordoba",
    "city": "cordoba",
    "address": "Taller Movil",
    "lat": -31.4493104,
    "lng": -64.1812084,
    "email": "joseloza@arnet.com.ar;62pepeu@gmail.com",
    "phone": "(0351)155524607",
    "type": "gestya"
  },
  {
    "name": "SERVITAC S.R.L",
    "state": "cordoba",
    "city": "cordoba",
    "address": "Ucacha 2293",
    "lat": -31.4347596,
    "lng": -64.1339375,
    "email": "administracion@servitacsrl.com",
    "phone": "(0351)155990917",
    "type": "gestya"
  },
  {
    "name": "VITACO PROTECCIONES SA",
    "state": "cordoba",
    "city": "cordoba",
    "address": "Adrian Cires 3497",
    "lat": -31.3749478,
    "lng": -64.176833,
    "email": "vitacoprotecciones@yahoo.com.ar",
    "phone": "(0351)4704001",
    "type": "gestya"
  },
  {
    "name": "FARIOLI NORBERTO",
    "state": "cordoba",
    "city": "coronel-moldes",
    "address": "Sarmiento 435",
    "lat": -33.6188627,
    "lng": -64.600551,
    "email": "autobat@live.com.ar",
    "phone": "(3582)431005",
    "type": "gestya"
  },
  {
    "name": "OLEOHIDRÁULICA NINO",
    "state": "cordoba",
    "city": "corral-de-bustos",
    "address": "San Martin 802",
    "lat": -33.2899677,
    "lng": -62.18959890000001,
    "email": "oleohidraulicanino@gmail.com",
    "phone": "(03468)422434",
    "type": "gestya"
  },
  {
    "name": "MORAL MARCOS ALEJANDRO",
    "state": "cordoba",
    "city": "dalmacio-velez-sarsfield",
    "address": "Taller Móvil",
    "lat": -32.61256170000001,
    "lng": -63.57886609999999,
    "email": "marcos.moral@hotmail.com",
    "phone": "(0353)154819740",
    "type": "gestya"
  },
  {
    "name": "GIMENEZ RODOLFO DAVID",
    "state": "cordoba",
    "city": "el-fortin",
    "address": "10 De Junio 90",
    "lat": -31.9744,
    "lng": -62.297901,
    "email": "aliprevero@hotmail.com",
    "phone": "(03533)15432981",
    "type": "gestya"
  },
  {
    "name": "DURANDO ARIEL FERNANDO",
    "state": "cordoba",
    "city": "freyre",
    "address": "Sola Y Dotti",
    "lat": -31.1718252,
    "lng": -62.1012563,
    "email": "elchaira_1@yahoo.com.ar",
    "phone": "(03564)15419826",
    "type": "gestya"
  },
  {
    "name": "AES SERVICIOS AGRO",
    "state": "cordoba",
    "city": "general-deheza",
    "address": "Esteban Echeverria 190 Parque Industrial",
    "lat": -31.4418433,
    "lng": -62.121274,
    "email": "aesserviciosagro@hotmail.com",
    "phone": "(03585)15604784",
    "type": "gestya"
  },
  {
    "name": "GOMEZ JOSE OSVALDO",
    "state": "cordoba",
    "city": "general-deheza",
    "address": "Balcarce 125",
    "lat": -32.7593573,
    "lng": -63.7958545,
    "email": "tallerelectromecanicojosegomez@hotmail.com",
    "phone": "(0358)4050151",
    "type": "gestya"
  },
  {
    "name": "PERLO HNOS",
    "state": "cordoba",
    "city": "general-lavalle",
    "address": "9 De Julio 260",
    "lat": -36.406402,
    "lng": -56.9433384,
    "email": "perlohnos@gmail.com",
    "phone": "(03385)480003",
    "type": "gestya"
  },
  {
    "name": "ELECTROMECANICA LUZZINI",
    "state": "cordoba",
    "city": "guatimozin",
    "address": "Tucuman 152",
    "lat": -33.4654865,
    "lng": -62.4344164,
    "email": "electromecanica-leoluzzini@hotmail.com",
    "phone": "(03468)495738",
    "type": "gestya"
  },
  {
    "name": "BANCHIO MARTIN ARIEL",
    "state": "cordoba",
    "city": "hernando",
    "address": "Nicaragua Y Antartida Argentina",
    "lat": -32.4214077,
    "lng": -63.72824689999999,
    "email": "martin_banchio@hotmail.com",
    "phone": "(0353)4962609",
    "type": "gestya"
  },
  {
    "name": "BISSIO CARLOS ROQUE",
    "state": "cordoba",
    "city": "hernando",
    "address": "Matheu 514 - Barrio : Las Flores",
    "lat": -32.4221337,
    "lng": -63.7349026,
    "type": "gestya"
  },
  {
    "name": "CERIDONO GUSTAVO RAUL",
    "state": "cordoba",
    "city": "hernando",
    "address": "Uruguay 1015",
    "lat": -32.4255251,
    "lng": -63.7319581,
    "email": "gustavoceridono@gmail.com",
    "phone": "(0353)156566237",
    "type": "gestya"
  },
  {
    "name": "VIEJO TALA S.R.L.",
    "state": "cordoba",
    "city": "hernando",
    "address": "San Martin 215",
    "lat": -32.4270446,
    "lng": -63.7336074,
    "email": "repuestos@viejotalahernando.com.ar",
    "type": "gestya"
  },
  {
    "name": "CANAVES FERNANDO MIGUEL",
    "state": "cordoba",
    "city": "huinca-renanco",
    "address": "Alem 69",
    "lat": -34.8394179,
    "lng": -64.3816516,
    "email": "electricidadcanaves@hotmail.com",
    "phone": "(02336)494477",
    "type": "gestya"
  },
  {
    "name": "GROUP ELECTRICIDAD HERMANOS CANAVES S.A.S.",
    "state": "cordoba",
    "city": "huinca-renanco",
    "address": "Alem 69",
    "lat": -34.8394179,
    "lng": -64.3816516,
    "email": "electricidadcanaves@hotmail.com",
    "phone": "(2302)448515",
    "type": "gestya"
  },
  {
    "name": "GOMERIA CANFED",
    "state": "cordoba",
    "city": "idiazabal",
    "address": "Tucuman 586",
    "lat": -32.8128449,
    "lng": -63.0296417,
    "email": "elderolmos@hotmail.com",
    "phone": "(03537)15603826",
    "type": "gestya"
  },
  {
    "name": "ELECTROMECANICA PABLITO",
    "state": "cordoba",
    "city": "james-craik",
    "address": "Yapeyu Esq. Gabriela Mistral",
    "lat": -32.1571528,
    "lng": -63.4656227,
    "email": "enicolas22990@hotmail.com.ar",
    "phone": "(3534)285242",
    "type": "gestya"
  },
  {
    "name": "NIETO SEBASTIAN LEONARDO",
    "state": "cordoba",
    "city": "jesus-maria",
    "address": "Colectora Pedro J Frias Norte",
    "lat": -30.971526,
    "lng": -64.0834289,
    "type": "gestya"
  },
  {
    "name": "RINAUDO FERNANDO RAMON",
    "state": "cordoba",
    "city": "jesus-maria",
    "address": "Carlos Griguol 216",
    "lat": -30.9951207,
    "lng": -64.0980876,
    "email": "fer_rinaudo@yahoo.com.ar",
    "phone": "(03525)464797",
    "type": "gestya"
  },
  {
    "name": "TRAC-CIONAR SAS",
    "state": "cordoba",
    "city": "jesús-maría",
    "address": "Colectora Pedro J Frías Norte 845",
    "lat": -30.9671769,
    "lng": -64.08274980000002,
    "phone": "(03471)15336254",
    "type": "gestya"
  },
  {
    "name": "CAVAAN SAS",
    "state": "cordoba",
    "city": "justiniano-posse",
    "address": "Nelso Chiaretta 489",
    "lat": -32.8919764,
    "lng": -62.67663289999999,
    "type": "gestya"
  },
  {
    "name": "ELECTROMECANICA ROSSO S.R.L.",
    "state": "cordoba",
    "city": "justiniano-posse",
    "address": "Av La Tablada 759",
    "lat": -32.8876867,
    "lng": -62.6794074,
    "email": "electromecanicarosso@nodosud.com.ar",
    "phone": "(03537)431568",
    "type": "gestya"
  },
  {
    "name": "TRAVERSO DANIEL ALEJANDRO DEMETRIO",
    "state": "cordoba",
    "city": "laborde",
    "address": "Rivadavia Y Avellaneda",
    "lat": -33.153229,
    "lng": -62.85095,
    "email": "madelvallesosa@gmail.com",
    "phone": "(03537)15587370",
    "type": "gestya"
  },
  {
    "name": "ATILIO LUCERO SA",
    "state": "cordoba",
    "city": "laboulaye",
    "address": "Avenida Independencia 734",
    "lat": -34.138315,
    "lng": -63.3925124,
    "type": "gestya"
  },
  {
    "name": "GEOZ ELECTICAR",
    "state": "cordoba",
    "city": "laboulaye",
    "address": "Av. Pellegrini 51",
    "lat": -34.1290724,
    "lng": -63.39159939999999,
    "email": "geoz.gera@gmail.com",
    "phone": "(3385)521000",
    "type": "gestya"
  },
  {
    "name": "ELECTROMECANICA MORICONI",
    "state": "cordoba",
    "city": "la-carlota",
    "address": "España 546",
    "lat": -33.4180372,
    "lng": -63.29700150000001,
    "type": "gestya"
  },
  {
    "name": "GARAFULIC RAMON ALBERTO",
    "state": "cordoba",
    "city": "la-carlota",
    "address": "Fray Medina 245",
    "lat": -33.4165312,
    "lng": -63.2886055,
    "email": "garafulicramon@hotmail.com",
    "phone": "(03584)15400210",
    "type": "gestya"
  },
  {
    "name": "ELECTROMECANICA BUFFA HNOS",
    "state": "cordoba",
    "city": "laguna-larga",
    "address": "San Luis 575",
    "lat": -31.7753767,
    "lng": -63.7989908,
    "email": "emiliabuffa1@gmail.com",
    "phone": "(03572)480180",
    "type": "gestya"
  },
  {
    "name": "JORQUERA MARCELO JOAQUIN",
    "state": "cordoba",
    "city": "la-laguna-(dpto.gral.san-martin)",
    "address": "Rivadavia 488",
    "lat": -32.8031456,
    "lng": -63.245124,
    "type": "gestya"
  },
  {
    "name": "ELECTRICIDAD EL MICA",
    "state": "cordoba",
    "city": "la-paquita",
    "address": "Ayacucho 380",
    "lat": -30.9076975,
    "lng": -62.213933,
    "email": "mikareinoso_3676@hotmail.com",
    "phone": "(03562)15435096",
    "type": "gestya"
  },
  {
    "name": "GIRAUDO MIGUEL ANGEL",
    "state": "cordoba",
    "city": "la-para",
    "address": "Bartolome Mitre 285",
    "lat": -30.8923643,
    "lng": -62.9996212,
    "email": "miguel_giraudo@hotmail.com",
    "phone": "(03575)491125",
    "type": "gestya"
  },
  {
    "name": "ELECTROMECANICA EL GRINGO",
    "state": "cordoba",
    "city": "las-junturas",
    "address": "Ruta 13 Km 32",
    "lat": -31.7010059,
    "lng": -62.9612417,
    "email": "arielnani2010@hotmail.com",
    "phone": "(03532)15498910",
    "type": "gestya"
  },
  {
    "name": "KASNER DAVID EMERY",
    "state": "cordoba",
    "city": "las-perdices",
    "address": "Sarmiento 667",
    "lat": -32.699343,
    "lng": -63.70597969999999,
    "type": "gestya"
  },
  {
    "name": "GYG ELECTROREFRIGERACIONES",
    "state": "cordoba",
    "city": "las-varillas",
    "address": "Cura Brochero 498",
    "lat": -31.8639112,
    "lng": -62.7175494,
    "email": "guillermogottero@hotmail.com",
    "phone": "(3533)685924",
    "type": "gestya"
  },
  {
    "name": "ELECTROMECANICA PIGNERE",
    "state": "cordoba",
    "city": "leones",
    "address": "Amadeo Bertini 1065",
    "lat": -32.6551984,
    "lng": -62.3018371,
    "email": "oscarpignere@nodosud.com.ar",
    "phone": "(03472)483307",
    "type": "gestya"
  },
  {
    "name": "HENRI BAROLO",
    "state": "cordoba",
    "city": "leones",
    "address": "General Roca 1194",
    "lat": -32.6539271,
    "lng": -62.2978283,
    "email": "henrirafaelbarolo@gmail.com",
    "phone": "(03472)482617",
    "type": "gestya"
  },
  {
    "name": "ELECTROMECÁNICA SAN CAYETANO",
    "state": "cordoba",
    "city": "los-surgentes",
    "address": "Belgrano 673",
    "lat": -32.9863689,
    "lng": -62.0250678,
    "email": "sancayetano@coopsur.com.ar",
    "phone": "(03467)495115",
    "type": "gestya"
  },
  {
    "name": "MACCIONI ALEJANDRO EZEQUIEL",
    "state": "cordoba",
    "city": "los-surgentes",
    "address": "Ciudad De Belen 464",
    "lat": -32.986014,
    "lng": -62.017754,
    "email": "aleezemaccioni@gmail.com",
    "phone": "(03467)15403991",
    "type": "gestya"
  },
  {
    "name": "RAMOS PAULO LUCIANO",
    "state": "cordoba",
    "city": "lozada",
    "address": "Zona Rural 0",
    "lat": -31.6488205,
    "lng": -64.08860779999999,
    "email": "paulor222@gmail.com",
    "phone": "(351)2710222",
    "type": "gestya"
  },
  {
    "name": "JUAREZ OSCAR HECTOR",
    "state": "cordoba",
    "city": "luque",
    "address": "San Lorenzo 822",
    "lat": -31.6505522,
    "lng": -63.34621509999999,
    "email": "oscar-juarez@hotmail.com.ar",
    "phone": "(03573)480346",
    "type": "gestya"
  },
  {
    "name": "ELECTROMECANICA SV",
    "state": "cordoba",
    "city": "marcos-juarez",
    "address": "Alvear 1491",
    "lat": -32.6866563,
    "lng": -62.1099156,
    "email": "electromecanicasv@coyspu.com.ar",
    "phone": "(03472)455705",
    "type": "gestya"
  },
  {
    "name": "ELECTROMECANICA GASTALDI",
    "state": "cordoba",
    "city": "mattaldi",
    "address": "San Martin Nº342",
    "lat": -34.4796313,
    "lng": -64.1705705,
    "email": "gastaldisergio28@gmail.com",
    "phone": "(3583)443549",
    "type": "gestya"
  },
  {
    "name": "MECANICA ORDOÑEZ",
    "state": "cordoba",
    "city": "mattaldi",
    "address": "Salta 72",
    "lat": -34.4807239,
    "lng": -64.17391599999999,
    "email": "jorgeordonez1960@gmail.com",
    "phone": "(03583)15412358 - (03583)15481735",
    "type": "gestya"
  },
  {
    "name": "IMPERIO MAC S.A.",
    "state": "cordoba",
    "city": "mi-granja",
    "address": "Ruta Nacional 19 Km 316 0 M:42 - Barrio : Comuna Mi Granja",
    "lat": -31.477173,
    "lng": -64.090052,
    "email": "ventas@lothar.com.ar",
    "phone": "(351)2058688",
    "type": "gestya"
  },
  {
    "name": "SERAFINI ALEJANDRO ADRIAN",
    "state": "cordoba",
    "city": "monte-maiz",
    "address": "Salta 1857",
    "lat": -33.2026255,
    "lng": -62.6027169,
    "email": "alejoserafini@hotmail.com",
    "phone": "(03468)471256",
    "type": "gestya"
  },
  {
    "name": "BRUNAS LEONARDO NORBERTO",
    "state": "cordoba",
    "city": "morteros",
    "address": "Las Heras 1435",
    "lat": -30.7163326,
    "lng": -62.01292999999999,
    "email": "leonardobrunas@hotmail.com",
    "phone": "(03562)405941",
    "type": "gestya"
  },
  {
    "name": "LA BOUTIQUE DEL LUBRICANTE",
    "state": "cordoba",
    "city": "oliva",
    "address": "Leandro N. Alem 685",
    "lat": -32.047479,
    "lng": -63.5660538,
    "email": "robertpicatto@hotmail.com",
    "phone": "(0353)155693107",
    "type": "gestya"
  },
  {
    "name": "LEVIS OLDANI NEUMATICOS SA",
    "state": "cordoba",
    "city": "oncativo",
    "address": "San Martin 1236",
    "lat": -31.9187239,
    "lng": -63.67816089999999,
    "email": "levisoldani@oncativo.net.ar",
    "phone": "(03572)466766",
    "type": "gestya"
  },
  {
    "name": "PICCIONI FRANCO",
    "state": "cordoba",
    "city": "oncativo",
    "address": "Rio Negro 366",
    "lat": -31.9248937,
    "lng": -63.6797725,
    "email": "francopiccioni920@gmail.com",
    "phone": "(03572)15582999",
    "type": "gestya"
  },
  {
    "name": "SERCRAZ-SISTEMAS DE SEGURIDAD S.A.S.",
    "state": "cordoba",
    "city": "oncativo",
    "address": "Intendente Matta 557",
    "lat": -31.912082,
    "lng": -63.67485379999999,
    "email": "scravero@arnet.com.ar",
    "phone": "(03572)460029",
    "type": "gestya"
  },
  {
    "name": "DECIMO OMAR ANTONIO",
    "state": "cordoba",
    "city": "pilar",
    "address": "Libertad 616",
    "lat": -31.6824934,
    "lng": -63.87547379999999,
    "email": "odecimo@live.com.ar",
    "phone": "(03572)471321",
    "type": "gestya"
  },
  {
    "name": "SUAREZ CRISTIAN WALTER",
    "state": "cordoba",
    "city": "pilar",
    "address": "Zenaida Cabrera 1731",
    "lat": -31.6742646,
    "lng": -63.88857530000001,
    "email": "dribble24@hotmail.com",
    "phone": "(3572)606006",
    "type": "gestya"
  },
  {
    "name": "MORANO OSCAR LUCIANO",
    "state": "cordoba",
    "city": "piquillin",
    "address": "Belgrano 86",
    "lat": -31.2996355,
    "lng": -63.75678139999999,
    "email": "morano_oscar@hotmail.com",
    "phone": "(03574)15455067",
    "type": "gestya"
  },
  {
    "name": "BENEDETICH LUCAS DAVID",
    "state": "cordoba",
    "city": "portena",
    "address": "Belgrano 288",
    "lat": -31.017524,
    "lng": -62.06710769999999,
    "email": "benedetichlucas@gmail.com",
    "phone": "(03564)15565499",
    "type": "gestya"
  },
  {
    "name": "NANO ELECTRICIDAD DE FERNANDO CARIGNANO",
    "state": "cordoba",
    "city": "portena",
    "address": "San Martin 680",
    "lat": -31.0150835,
    "lng": -62.06064300000001,
    "email": "nanoelect3@hotmail.com",
    "phone": "(03564)15659606",
    "type": "gestya"
  },
  {
    "name": "DURANDO ARIEL ALEJANDRO",
    "state": "cordoba",
    "city": "pozo-del-molle",
    "address": "Mendoza 384",
    "lat": -32.023042,
    "lng": -62.9205585,
    "email": "armandodurando@hotmail.com",
    "phone": "(0353)4868451",
    "type": "gestya"
  },
  {
    "name": "ELECTROMECANICA PEPINO",
    "state": "cordoba",
    "city": "pozo-del-molle",
    "address": "Rivadavia 262",
    "lat": -32.0162284,
    "lng": -62.9212974,
    "email": "tallerpepino@hotmail.com.ar",
    "phone": "(0353)4830314",
    "type": "gestya"
  },
  {
    "name": "BARBORA EZEQUIEL",
    "state": "cordoba",
    "city": "rio-cuarto",
    "address": "Pje 12 De Octubre 1276",
    "lat": -33.1253999,
    "lng": -64.37209779999999,
    "email": "ezequiel_barbora@hotmail.com",
    "phone": "(0358)155138046",
    "type": "gestya"
  },
  {
    "name": "GIACHERO ELECTRICIDAD",
    "state": "cordoba",
    "city": "rio-cuarto",
    "address": "Gobernador Rodriguez 110",
    "lat": -33.1500333,
    "lng": -64.3540984,
    "email": "giacheroraquel@yahoo.com.ar",
    "phone": "(0358)4634396",
    "type": "gestya"
  },
  {
    "name": "REYNOLDS S.R.L.",
    "state": "cordoba",
    "city": "rio-cuarto",
    "address": "Ruta Nacional N° 8 Km 606",
    "lat": -33.1192682,
    "lng": -64.32532069999999,
    "email": "info@reynoldss.com.ar",
    "phone": "(0358)4623769",
    "type": "gestya"
  },
  {
    "name": "SUPLEX S.A.S",
    "state": "cordoba",
    "city": "rio-cuarto",
    "address": "Reverendo Padre Geniale Silvi 207",
    "lat": -33.1013056,
    "lng": -64.33006,
    "email": "suplex.sas@gmail.com",
    "phone": "(0358)4633658",
    "type": "gestya"
  },
  {
    "name": "GIANANDREA WALTER ARMANDO",
    "state": "cordoba",
    "city": "rio-primero",
    "address": "Av. Malvinas Argentinas 425",
    "lat": -31.3273694,
    "lng": -63.6235337,
    "email": "mgalarmas.wgianandrea@gmail.com",
    "phone": "(03574)15454375",
    "type": "gestya"
  },
  {
    "name": "JM SERVICIOS",
    "state": "cordoba",
    "city": "rio-primero",
    "address": "Taller Movil",
    "lat": -31.3317205,
    "lng": -63.6220702,
    "email": "jmserviciosrioprimero@gmail.com",
    "phone": "(0351)153847999",
    "type": "gestya"
  },
  {
    "name": "DISTRIBUIDORA PSENDA S.A.",
    "state": "cordoba",
    "city": "rio-tercero",
    "address": "Avda 9 De Septiembre 78",
    "lat": -32.1703469,
    "lng": -64.11736859999999,
    "email": "ccolusso@distribuidorapsenda.com.ar",
    "phone": "(03571)421697",
    "type": "gestya"
  },
  {
    "name": "PALLOTTI GUILLERMO ANTONIO",
    "state": "cordoba",
    "city": "rio-tercero",
    "address": "Urquiza 758",
    "lat": -32.1775298,
    "lng": -64.12558179999999,
    "email": "guillepallotti@hotmail.com",
    "phone": "(03571)15529231",
    "type": "gestya"
  },
  {
    "name": "SUAREZ MARTIN MAURICIO DAVID",
    "state": "cordoba",
    "city": "rio-tercero",
    "address": "Paula Albarracin De Sarmiento 1891",
    "lat": -32.1766534,
    "lng": -64.1423912,
    "email": "martinhermanorio3@gmail.com",
    "phone": "(03571)507255",
    "type": "gestya"
  },
  {
    "name": "BGB ELECTRICIDAD",
    "state": "cordoba",
    "city": "san-agustin",
    "address": "Hipolito Yrigoyen",
    "lat": -31.9777622,
    "lng": -64.3751707,
    "email": "bgbelectricidad@hotmail.com.ar",
    "phone": "(03547)491400",
    "type": "gestya"
  },
  {
    "name": "PINTADO JUAN MANUEL",
    "state": "cordoba",
    "city": "san-francisco",
    "address": "Constancio Vigil 1962",
    "lat": -31.42499919999999,
    "lng": -62.0841599,
    "email": "ventasvvmsh@gmail.com",
    "phone": "(3536)561091",
    "type": "gestya"
  },
  {
    "name": "VL PROTECCIONES",
    "state": "cordoba",
    "city": "san-francisco",
    "address": "Bv. Buenos Aires N° 1259",
    "lat": -31.4169242,
    "lng": -62.0894487,
    "email": "vlprotecciones@gmail.com",
    "phone": "(03564)420265",
    "type": "gestya"
  },
  {
    "name": "BOBINADOS JR",
    "state": "cordoba",
    "city": "san-jose-de-la-dormida",
    "address": "Pisco Huasi 51",
    "lat": -30.35025629999999,
    "lng": -63.9396515,
    "email": "agustinpierna@gmail.com",
    "phone": "(351)152115811",
    "type": "gestya"
  },
  {
    "name": "REPARACIONES AVENIDA (LEANDRO CAPOMASI)",
    "state": "cordoba",
    "city": "san-marcos-sud",
    "address": "Amadeo Sabattini 42 Y Ruta Número 9 James Craik",
    "lat": -32.1615236,
    "lng": -63.4678394,
    "email": "reparacionesavenida@gmail.com",
    "phone": "(03537)15358473",
    "type": "gestya"
  },
  {
    "name": "LERIN MARIO WALTER",
    "state": "cordoba",
    "city": "santa-eufemia",
    "address": "Av Gral Juan D. Peron 184",
    "lat": -32.2968402,
    "lng": -63.580611,
    "email": "mariolerin69@gmail.com",
    "phone": "(03584)15408179",
    "type": "gestya"
  },
  {
    "name": "GONZALEZ CRISTIAN RAUL",
    "state": "cordoba",
    "city": "serrano",
    "address": "Antartida 350",
    "lat": -34.4717558,
    "lng": -63.5379821,
    "email": "cristgonzalez@internet-24.com.ar",
    "phone": "(03385)495469",
    "type": "gestya"
  },
  {
    "name": "BACCI JOAQUIN LAUTARO",
    "state": "cordoba",
    "city": "silvio-pellico",
    "address": "Av General Belgrano 226",
    "lat": -31.3159875,
    "lng": -64.30545599999999,
    "type": "gestya"
  },
  {
    "name": "ELECTROMECANICA COMUGNARO",
    "state": "cordoba",
    "city": "ucacha",
    "address": "La Pampa 327",
    "lat": -33.0337843,
    "lng": -63.51114189999999,
    "email": "elec-comugnaro@ucachanet.com.ar",
    "phone": "(0353)4900638",
    "type": "gestya"
  },
  {
    "name": "ATALBA S.A.",
    "state": "cordoba",
    "city": "vicuna-mackenna",
    "address": "Novillo Y Zambroni",
    "lat": -33.9252739,
    "lng": -64.39960549999999,
    "email": "atalbasa37@gmail.com",
    "phone": "(03583)480645",
    "type": "gestya"
  },
  {
    "name": "ELECTROMECANICA ANDREAZZINI",
    "state": "cordoba",
    "city": "villa-cura-brochero",
    "address": "Av. Mina Clavero 137",
    "lat": -31.7173223,
    "lng": -65.01364939999999,
    "email": "randreazzini@hotmail.com",
    "phone": "(03544)472436",
    "type": "gestya"
  },
  {
    "name": "ELECTROMECÁNICA CHEITO",
    "state": "cordoba",
    "city": "villa-del-rosario",
    "address": "Belgrano 232",
    "lat": -31.5562575,
    "lng": -63.53560539999999,
    "email": "cheito.ellimao@gmail.com",
    "phone": "(03573)15442928",
    "type": "gestya"
  },
  {
    "name": "ELECTROMECANICA OLIVERO",
    "state": "cordoba",
    "city": "villa-del-rosario",
    "address": "San Martin 154",
    "lat": -31.5562575,
    "lng": -63.53560539999999,
    "email": "oliveroelectro@gmail.com",
    "type": "gestya"
  },
  {
    "name": "CUELLO NELSON GERARDO",
    "state": "cordoba",
    "city": "villa-del-totoral",
    "address": "Ruta Nacional Nº 9 Km 784 0 - Barrio : Industrial",
    "lat": -30.706457,
    "lng": -64.055298,
    "type": "gestya"
  },
  {
    "name": "RODRIGUEZ RODOLFO ANTONIO",
    "state": "cordoba",
    "city": "villa-maria",
    "address": "Bv. Sarmiento N° 1394",
    "lat": -32.4160891,
    "lng": -63.2342758,
    "email": "rodolfo_rodriguezvm@hotmail.com",
    "phone": "(0353)4537938",
    "type": "gestya"
  },
  {
    "name": "ALONSO GISELA ANAHI",
    "state": "cordoba",
    "city": "villa-maria-del-rio-seco",
    "address": "Rivadavia 1012-Barrio:Centro",
    "lat": -29.91257925,
    "lng": -63.7250937225177,
    "email": "copo1982@hotmail.com",
    "phone": "(3522)408833",
    "type": "gestya"
  },
  {
    "name": "ELECTROCAR",
    "state": "cordoba",
    "city": "villa-nueva",
    "address": "Ruta 4 Y Saenz Peña",
    "lat": -32.4139714,
    "lng": -63.25960060000001,
    "email": "alcarazalberto65@gmail.com",
    "phone": "(0353)154593935",
    "type": "gestya"
  },
  {
    "name": "CENTRO DE SERVICIOS LITORAL",
    "state": "corrientes",
    "city": "corrientes",
    "address": "Ruta Nacional 12 Km 1026",
    "lat": -27.5237175,
    "lng": -58.7656143,
    "email": "edgardoracig@gmail.com",
    "phone": "(0362)154515272",
    "type": "gestya"
  },
  {
    "name": "BAROLIN QUINTANA ERARDO PABLO",
    "state": "corrientes",
    "city": "esquina",
    "address": "Schweizer 824",
    "lat": -30.0158371,
    "lng": -59.5286708,
    "email": "pablobarolin@hotmail.com",
    "phone": "(03777)15656084",
    "type": "gestya"
  },
  {
    "name": "GOMERÍA DON ANTONIO",
    "state": "corrientes",
    "city": "goya",
    "address": "Av. Mazantti 130",
    "lat": -29.143592,
    "lng": -59.2644099,
    "email": "gomeriadonantonio@arnet.com.ar",
    "phone": "(03777)432931",
    "type": "gestya"
  },
  {
    "name": "MECATRONIK",
    "state": "corrientes",
    "city": "ing.-valentín-virasoro",
    "address": "Juan Ramon Vidal 148",
    "lat": -28.0636964,
    "lng": -56.0163571,
    "email": "mecatronik_eprom@hotmail.com",
    "phone": "(0376)154170518",
    "type": "gestya"
  },
  {
    "name": "LOS DOS COLOS REPUESTOS",
    "state": "corrientes",
    "city": "monte-caseros",
    "address": "Hipolito Yrigollen Y Callao",
    "lat": -30.2500583,
    "lng": -57.6582487,
    "email": "los2colosrepuestos@yahoo.com.ar",
    "phone": "(03775)428894",
    "type": "gestya"
  },
  {
    "name": "ARRONDA MAURO ANDRES",
    "state": "corrientes",
    "city": "paso-de-los-libres",
    "address": "Taller Movil",
    "lat": -29.7137101,
    "lng": -57.0855601,
    "email": "mauroarronda@gmail.com",
    "phone": "(3772)438950",
    "type": "gestya"
  },
  {
    "name": "ELECTROTECNICA ALFA",
    "state": "corrientes",
    "city": "paso-de-los-libres",
    "address": "Coronel Reguera 810",
    "lat": -29.7149755,
    "lng": -57.0889216,
    "email": "oronarobertofabian@gmail.com",
    "phone": "(03772)422840",
    "type": "gestya"
  },
  {
    "name": "GIORDANO DANIEL ARNALDO",
    "state": "corrientes",
    "city": "santa-lucia",
    "address": "Taller Movil",
    "lat": -28.9820202,
    "lng": -59.1009032,
    "email": "giordanod054@gmail.com",
    "phone": "(0379)154261188",
    "type": "gestya"
  },
  {
    "name": "EL PUNTO FIJO",
    "state": "entre-rios",
    "city": "chajari",
    "address": "Villa Libertad 2461",
    "lat": -30.743401,
    "lng": -57.99250000000001,
    "email": "elpuntofijo@hotmail.com",
    "phone": "(03456)423030",
    "type": "gestya"
  },
  {
    "name": "SURT AUTOPARTES ACCESORIOS",
    "state": "entre-rios",
    "city": "chajari",
    "address": "Avenida Villa Libertad N° 4935",
    "lat": -30.7607244,
    "lng": -58.01310969999999,
    "email": "marcelosurt.ms@gmail.com",
    "phone": "(03456)15406007",
    "type": "gestya"
  },
  {
    "name": "SCHAAF ARIEL DANIEL",
    "state": "entre-rios",
    "city": "concepcion-del-uruguay",
    "address": "Ruta Nac. 14 Y Bv. R. Balvin",
    "lat": -32.4851849,
    "lng": -58.2320232,
    "email": "baseconcepcion2024@gmail.com",
    "phone": "(03442)15559837",
    "type": "gestya"
  },
  {
    "name": "CARRICABERRY HRNOS.",
    "state": "entre-rios",
    "city": "concordia",
    "address": "Av. Ricardo Alfonsín Y Calle Públia N°3 (Ex Ruta 22 - Acceso Sur A Concordia)",
    "lat": -31.403712,
    "lng": -58.012432,
    "email": "gerardocarricaberry@gmail.com",
    "phone": "(0345)156260161",
    "type": "gestya"
  },
  {
    "name": "LAGO DIEGO RODOLFO",
    "state": "entre-rios",
    "city": "concordia",
    "address": "Moulins 874",
    "lat": -31.3758116,
    "lng": -58.03141369999999,
    "email": "diego_lago1@hotmail.com",
    "phone": "(0345)154051396",
    "type": "gestya"
  },
  {
    "name": "WENDLER REPUESTOS",
    "state": "entre-rios",
    "city": "crespo",
    "address": "Rivadavia E Irigoyen",
    "lat": -32.0308542,
    "lng": -60.3108399,
    "email": "marcelo.gerencia@wendler.com.ar",
    "phone": "(0343)4951309",
    "type": "gestya"
  },
  {
    "name": "REYNOSO JUAN IGNACIO",
    "state": "entre-rios",
    "city": "gualeguay",
    "address": "Taller Movil",
    "lat": -33.1503285,
    "lng": -59.31046849999999,
    "email": "nacho-reynoso@live.com.ar",
    "phone": "(3484)587480",
    "type": "gestya"
  },
  {
    "name": "YACO REPUESTOS",
    "state": "entre-rios",
    "city": "gualeguay",
    "address": "San José 129",
    "lat": -33.1363387,
    "lng": -59.31301910000001,
    "email": "tallerjacobjulio@hotmail.com",
    "phone": "(03444)425861",
    "type": "gestya"
  },
  {
    "name": "CENTRO DE SERVICIO DE GUALEGUAYCHU",
    "state": "entre-rios",
    "city": "gualeguaychu",
    "address": "Ruta 14 Km 55",
    "lat": -33.0083003,
    "lng": -58.6054184,
    "email": "carlosrepresentantevigia@hotmail.com",
    "phone": "(03446)15479281",
    "type": "gestya"
  },
  {
    "name": "MECANICA CAVIGIOLI",
    "state": "entre-rios",
    "city": "la-paz",
    "address": "Ruta Provincial Km11 5",
    "lat": -30.7589703,
    "lng": -59.63927839999999,
    "email": "gncavigioli@hotmail.com",
    "phone": "(0343)7607789",
    "type": "gestya"
  },
  {
    "name": "GHIBAUDO, JULIO EDUARDO ARGENTINO",
    "state": "entre-rios",
    "city": "maria-grande",
    "address": "Ramírez Y Urquiza",
    "lat": -31.6620858,
    "lng": -59.9074723,
    "email": "julio_ghibaudo@hotmail.com",
    "phone": "(0343)4940608",
    "type": "gestya"
  },
  {
    "name": "WALTER ALARCON",
    "state": "entre-rios",
    "city": "parana",
    "address": "Taller Movil",
    "lat": -31.7413197,
    "lng": -60.51154709999999,
    "email": "walteralarcon1981@gmail.com",
    "phone": "(03493)15442859",
    "type": "gestya"
  },
  {
    "name": "GERVASONI INGIENERIA AUTOMOTOR",
    "state": "entre-rios",
    "city": "rosario-de-tala",
    "address": "Ruta 39 Y Jose J. Malespina (Km59)",
    "lat": -32.3,
    "lng": -59.15,
    "email": "joaquingervasoni@gmail.com",
    "phone": "(03455)15476474",
    "type": "gestya"
  },
  {
    "name": "PESADOS MAIPU",
    "state": "entre-rios",
    "city": "san-jose",
    "address": "Dr Bastian 967",
    "lat": -32.2162078,
    "lng": -58.22840739999999,
    "email": "vergniauddaniel@gmail.com",
    "phone": "(03447)15411778",
    "type": "gestya"
  },
  {
    "name": "ACEVEDO MARIO LUIS",
    "state": "entre-rios",
    "city": "san-jose-de-feliciano",
    "address": "Bv. Valdez N° 643",
    "lat": -30.3860028,
    "lng": -58.7510291,
    "type": "gestya"
  },
  {
    "name": "WMG SERVICIOS",
    "state": "entre-rios",
    "city": "santa-anita",
    "address": "Jose Hernandez N° 557",
    "lat": -32.1757845,
    "lng": -58.7861762,
    "email": "wmgservicios@gmail.com",
    "phone": "(03445)15411378",
    "type": "gestya"
  },
  {
    "name": "STIEBEN CARLOS OTTO",
    "state": "entre-rios",
    "city": "urdinarrain",
    "address": "Belgrano 43",
    "lat": -32.6790066,
    "lng": -58.8871654,
    "email": "electrostieben@urdi.com.ar",
    "phone": "(03446)480647",
    "type": "gestya"
  },
  {
    "name": "FRANCIA WALTER DAVID",
    "state": "entre-rios",
    "city": "viale",
    "address": "Taller Móvil",
    "lat": -31.8689913,
    "lng": -60.00843949999999,
    "email": "walterfrancia172@gmail.com",
    "phone": "(0343)154583874",
    "type": "gestya"
  },
  {
    "name": "SANTUCHO HUGO",
    "state": "entre-rios",
    "city": "victoria",
    "address": "Taller Movil",
    "lat": -32.6215856,
    "lng": -60.1575344,
    "email": "hugosantuchoventas@hotmail.com",
    "phone": "(0343)154057216",
    "type": "gestya"
  },
  {
    "name": "ELECTROMECANICA OSCAR CRESPO",
    "state": "entre-rios",
    "city": "villaguay",
    "address": "Leopoldo Herrera 4565",
    "lat": -31.8463426,
    "lng": -59.03149790000001,
    "email": "cocrespo@hotmail.com",
    "phone": "(03455)422014",
    "type": "gestya"
  },
  {
    "name": "DUARTE EMILIO DANIEL",
    "state": "formosa",
    "city": "el-colorado",
    "address": "Suipacha Y Mitre 990",
    "lat": -26.303959,
    "lng": -59.3773272,
    "email": "danielduarteemd@gmail.com",
    "phone": "(0370)154272520",
    "type": "gestya"
  },
  {
    "name": "METALURGICA CANALIS",
    "state": "formosa",
    "city": "las-lomitas",
    "address": "Ruta 81 S/N",
    "lat": -24.6998244,
    "lng": -60.5945302,
    "email": "metalmecanicadelnorte@hotmail.com.ar",
    "phone": "(3533)687393",
    "type": "gestya"
  },
  {
    "name": "FERNANDEZ IVAN GABRIEL",
    "state": "jujuy",
    "city": "palpala",
    "address": "Colectora Pálpala - Ruta Nº 66 En Parque Industrial Ing. Snopek",
    "lat": -24.2761084,
    "lng": -65.1489467,
    "email": "fernandezivan878@gmail.com",
    "phone": "(0388)154967473",
    "type": "gestya"
  },
  {
    "name": "SAN JOSE PROTECCIONES",
    "state": "jujuy",
    "city": "san-pedro-de-jujuy",
    "address": "Hipolito Irigoyen 339",
    "lat": -24.2318921,
    "lng": -64.86355379999999,
    "email": "gomeria_avenida@yahoo.com.ar",
    "phone": "(03888)15440624",
    "type": "gestya"
  },
  {
    "name": "SAN PEDRO BAJO CERO",
    "state": "jujuy",
    "city": "san-pedro-de-jujuy",
    "address": "Tucuman 341",
    "lat": -24.2382396,
    "lng": -64.8703056,
    "email": "augustoz77.az@gmail.com",
    "phone": "(03888)421605",
    "type": "gestya"
  },
  {
    "name": "KOHLER ELECTRICIDAD DE AUTOS",
    "state": "la-pampa",
    "city": "eduardo-castex",
    "address": "Av. Independencia N° 1356",
    "lat": -35.9149736,
    "lng": -64.2922815,
    "email": "electromecanicakohler@yahoo.com.ar",
    "phone": "(02334)442561",
    "type": "gestya"
  },
  {
    "name": "DOMINGUEZ RUBEN HORACIO",
    "state": "la-pampa",
    "city": "general-acha",
    "address": "España 139",
    "lat": -37.3687938,
    "lng": -64.59986719999999,
    "email": "electromecanicadominguez@yahoo.com.ar",
    "phone": "(02952)412728",
    "type": "gestya"
  },
  {
    "name": "AGUIRRE RUBEN HUMBERTO",
    "state": "la-pampa",
    "city": "general-pico",
    "address": "Calle 37 Nro. 674",
    "lat": -35.6389231,
    "lng": -63.75676559999999,
    "email": "centrodeserviciosrubenaguirre@gmail.com",
    "phone": "(02302)334430",
    "type": "gestya"
  },
  {
    "name": "ALVAREZ HECTOR GABRIEL",
    "state": "la-pampa",
    "city": "general-pico",
    "address": "Calle 108 Nº 335 Norte",
    "lat": -35.6676302,
    "lng": -63.77020109999999,
    "email": "surautomotores1@gmail.com",
    "phone": "(02302)436976",
    "type": "gestya"
  },
  {
    "name": "ELECTROAUTO S.R.L.",
    "state": "la-pampa",
    "city": "general-pico",
    "address": "Calle 11 Oeste 1119",
    "lat": -35.6742582,
    "lng": -63.7753244,
    "email": "javialeherrero@gmail.com;electroauto-srl@hotmail.com",
    "phone": "(2302)518754 - (230)313301",
    "type": "gestya"
  },
  {
    "name": "COLMAN GUSTAVO ANDRES",
    "state": "la-pampa",
    "city": "general-san-martin",
    "address": "Montes De Oca 881",
    "lat": -37.9788272,
    "lng": -63.6035347,
    "type": "gestya"
  },
  {
    "name": "ELECTRICIDAD YACO",
    "state": "la-pampa",
    "city": "realico",
    "address": "Remedios De Escalada 1352",
    "lat": -35.0354515,
    "lng": -64.2404233,
    "email": "electricidadyaco@cernet.com.ar",
    "phone": "(02331)462423",
    "type": "gestya"
  },
  {
    "name": "ELECTRICIDAD ANT-LUZ",
    "state": "la-pampa",
    "city": "santa-rosa",
    "address": "M. Luther King N° 2472",
    "lat": -36.6417051,
    "lng": -64.2749151,
    "email": "ant_luz_lapampa@yahoo.com.ar",
    "phone": "(02954)834400",
    "type": "gestya"
  },
  {
    "name": "PALMIERI HORACIO RUBEN",
    "state": "la-pampa",
    "city": "victorica",
    "address": "Calle 10 Esq. 11",
    "lat": -36.2142711,
    "lng": -65.4390561,
    "email": "horaciorubenpalmieri@gmail.com",
    "phone": "(02338)432348",
    "type": "gestya"
  },
  {
    "name": "CENTRO DE SERVICIOS LA RIOJA",
    "state": "la-rioja",
    "city": "la-rioja",
    "address": "Ruta 38 Km 426 (Colectora Este)",
    "lat": -29.4139663,
    "lng": -66.8218526,
    "email": "jjsuilar@gmail.com",
    "phone": "(0380)4460882 / 4460503",
    "type": "gestya"
  },
  {
    "name": "NASCA ANDRES ANTONIO",
    "state": "mendoza",
    "city": "carrodilla",
    "address": "Rawson 197 Depto: 4, M: H - Barrio Carolinos",
    "lat": -32.9719787,
    "lng": -68.8560847,
    "email": "andresantonionasca@gmail.com",
    "phone": "(0261)155046777",
    "type": "gestya"
  },
  {
    "name": "TERRAGROUP ARGENTINA SA",
    "state": "mendoza",
    "city": "fray-luis-beltran",
    "address": "Acceso Lateral Norte Km 1020 0",
    "lat": -32.9287021,
    "lng": -68.7537639,
    "email": "anavarro@terragroupargentina.com;vantequera@terragroupargentina.com",
    "phone": "(0261)4921371",
    "type": "gestya"
  },
  {
    "name": "SERVICIO PESADO",
    "state": "mendoza",
    "city": "gaymallen",
    "address": "Rio Salado 5977",
    "lat": -32.9250046,
    "lng": -68.7801568,
    "email": "fceledon@serviciopesado.com.ar;ironco@serviciopesado.com.ar",
    "phone": "(0261)152055049",
    "type": "gestya"
  },
  {
    "name": "ADRIAN VERA",
    "state": "mendoza",
    "city": "guaymallen",
    "address": "Sarmiento 1120",
    "lat": -32.8905468,
    "lng": -68.7995147,
    "email": "Vjproled@gmail.com",
    "phone": "(0261)155907380-",
    "type": "gestya"
  },
  {
    "name": "INTELSEG",
    "state": "mendoza",
    "city": "maipu",
    "address": "Carril Maza Norte 3267",
    "lat": -32.969302,
    "lng": -68.7930585,
    "email": "jdh913@yahoo.com.ar",
    "phone": "(0261)4931701",
    "type": "gestya"
  },
  {
    "name": "MIATELLO MARCELO GABRIEL",
    "state": "mendoza",
    "city": "maipu",
    "address": "Palma 2103",
    "lat": -32.9813948,
    "lng": -68.8122149,
    "email": "marcelomiatello@yahoo.com.ar",
    "phone": "(0261)155351155",
    "type": "gestya"
  },
  {
    "name": "ELECTRICIDAD GM",
    "state": "mendoza",
    "city": "palmira",
    "address": "San Juan 541",
    "lat": -33.0528026,
    "lng": -68.54748719999999,
    "email": "serviciosjmansilla@gmail.com",
    "phone": "(0263)4462733",
    "type": "gestya"
  },
  {
    "name": "TRANS GM S.R.L.",
    "state": "mendoza",
    "city": "palmira",
    "address": "Mzna. B Casa 11 2ºB. Belgrano",
    "lat": -33.0510587,
    "lng": -68.5594797,
    "type": "gestya"
  },
  {
    "name": "WITRALEN S.A.",
    "state": "mendoza",
    "city": "perdriel",
    "address": "Acceso Sur-Lateral Oeste Km 19.8",
    "lat": -33.0148928,
    "lng": -68.8583574,
    "email": "info@witralensa.com.ar",
    "type": "gestya"
  },
  {
    "name": "EL CRUCE S.A.",
    "state": "mendoza",
    "city": "san-francisco-del-monte",
    "address": "Rodriguez Peña 850",
    "lat": -32.925184,
    "lng": -68.812899,
    "type": "gestya"
  },
  {
    "name": "GLOBAL CLIMATIZACION",
    "state": "mendoza",
    "city": "san-rafael",
    "address": "Alberdi 562",
    "lat": -34.6284834,
    "lng": -68.3274735,
    "email": "globalclima06@gmail.com",
    "phone": "(02601)154570784",
    "type": "gestya"
  },
  {
    "name": "NEUMATICOS CAMILETTI SRL",
    "state": "mendoza",
    "city": "san-rafael",
    "address": "Av. Mitre 655",
    "lat": -34.6189896,
    "lng": -68.3209273,
    "email": "administracion@neumaticoscamiletti.com",
    "phone": "(260)4429600",
    "type": "gestya"
  },
  {
    "name": "FONTANA NEUMATICOS S.A.",
    "state": "misiones",
    "city": "obera",
    "address": "Ruta 14 Km 877",
    "lat": -27.5044418,
    "lng": -55.1201325,
    "email": "fontananeumaticos150@gmail.com",
    "phone": "(03755)402550",
    "type": "gestya"
  },
  {
    "name": "ELECTROMECANICA GUSTAVO",
    "state": "misiones",
    "city": "puerto-rico",
    "address": "Lluvia De Oro 2716",
    "lat": -26.8194873,
    "lng": -55.0214566,
    "email": "gustavoscherf@hotmail.com",
    "phone": "(03743)477861",
    "type": "gestya"
  },
  {
    "name": "RADIADORES CENTENARIO (DE CRESSATTI HORACIO Y PARADA JOSE SH)",
    "state": "neuquen",
    "city": "centenario",
    "address": "Rio Negro 474",
    "lat": -38.8421563,
    "lng": -68.1288762,
    "email": "radiadorescentenario@neunet.com.ar",
    "phone": "(0299)4894544",
    "type": "gestya"
  },
  {
    "name": "FUENTEALBA HECTOR HORACIO",
    "state": "neuquen",
    "city": "junin-de-los-andes",
    "address": "Quilquihue Y Boulevard Paimun 0",
    "lat": -39.9614808,
    "lng": -71.079395917375,
    "email": "loncoservicios@hotmail.com",
    "phone": "(02944)491823",
    "type": "gestya"
  },
  {
    "name": "C Y H SOCIEDAD ANONIMA",
    "state": "neuquen",
    "city": "neuquen",
    "address": "Premio Yunque Y Martin Fierro (Parque Industrialloeste)",
    "lat": -38.966592,
    "lng": -68.043015,
    "email": "carolina@cyhsa.com.ar",
    "phone": "(02966)15464455",
    "type": "gestya"
  },
  {
    "name": "PATAGONIA CAMIONES (DE SALDAÑA CARLOS, DINOLFO FABIAN Y DINOLFO LOPEZ PABLO SH)",
    "state": "neuquen",
    "city": "neuquen",
    "address": "Intendente Linares 635",
    "lat": -38.9620306,
    "lng": -68.0455579,
    "phone": "(0299)4487830 / 4429696",
    "type": "gestya"
  },
  {
    "name": "SERVICIOS SC S.A.S",
    "state": "neuquen",
    "city": "neuquen",
    "address": "Angel Edelman 168",
    "lat": -38.963508,
    "lng": -68.05686349999999,
    "email": "administracion@serviciossc.com.ar",
    "phone": "(0299)4470977",
    "type": "gestya"
  },
  {
    "name": "AMES ANDRES",
    "state": "neuquen",
    "city": "zapala",
    "address": "Mendoza 1608",
    "lat": -38.8885489,
    "lng": -70.0787606,
    "email": "amesandres@gmail.com",
    "phone": "(2942)15666067",
    "type": "gestya"
  },
  {
    "name": "ELECTRICIDAD ÑIRECO",
    "state": "rio-negro",
    "city": "bariloche",
    "address": "Benito Crespo 265",
    "lat": -41.1294017,
    "lng": -71.2858692,
    "email": "electrovisconti@gmail.com",
    "phone": "(0294)4425116",
    "type": "gestya"
  },
  {
    "name": "ELECTRICIDAD CEFERINO",
    "state": "rio-negro",
    "city": "catriel",
    "address": "Mosconi 345",
    "lat": -37.8732975,
    "lng": -67.79177539999999,
    "email": "electricidadceferino@gmail.com",
    "phone": "(0299)4911565",
    "type": "gestya"
  },
  {
    "name": "RED DOBLE A INSTRUMENTAL",
    "state": "rio-negro",
    "city": "cipolletti",
    "address": "Rotonda Rutas 22 Y 151",
    "lat": -38.938771,
    "lng": -67.9954929,
    "email": "amassola@dobleainstrumental.com.ar",
    "phone": "(0299)4784764",
    "type": "gestya"
  },
  {
    "name": "BEPO`S S.R.L.",
    "state": "rio-negro",
    "city": "general-roca",
    "address": "Bolivia 485",
    "lat": -39.0440135,
    "lng": -67.57340710000001,
    "email": "bepossrl@yahoo.com.ar",
    "phone": "(0298)4429653",
    "type": "gestya"
  },
  {
    "name": "MESCHINI JORGE LUIS",
    "state": "rio-negro",
    "city": "general-roca",
    "address": "Presidente H Yrigoyen 1545",
    "lat": -39.0294296,
    "lng": -67.58684459999999,
    "email": "electricidad_meschini@yahoo.com.ar",
    "phone": "(0298)4437291",
    "type": "gestya"
  },
  {
    "name": "TOTAL TRANS",
    "state": "rio-negro",
    "city": "viedma",
    "address": "Ruta 3 Km 966 Local 1",
    "lat": -40.8133473,
    "lng": -63.0190877,
    "email": "althaberepuestos@gmail.com",
    "phone": "(02920)424182",
    "type": "gestya"
  },
  {
    "name": "ARIAS HECTOR CESAR",
    "state": "rio-negro",
    "city": "villa-regina",
    "address": "Brown Y Querandies",
    "lat": -39.1095531,
    "lng": -67.0823341,
    "email": "ariasservicios@deregina.com.ar",
    "phone": "(0298)4463014",
    "type": "gestya"
  },
  {
    "name": "GOMERIA MARIÑO",
    "state": "rio-negro",
    "city": "villa-regina",
    "address": "Ruta 22 Y Gral. Roca",
    "lat": -39.09051789887216,
    "lng": -67.08802760372737,
    "email": "pablo2984550217@gmail.com",
    "phone": "(2984)4550217",
    "type": "gestya"
  },
  {
    "name": "REPCAM VR",
    "state": "rio-negro",
    "city": "villa-regina",
    "address": "Santa Flora Este 326",
    "lat": -39.0981364,
    "lng": -67.0789763,
    "email": "fpino92@hotmail.com",
    "type": "gestya"
  },
  {
    "name": "SUSCA PABLO MARTIN",
    "state": "rio-negro",
    "city": "villa-regina",
    "address": "La Pampa 544",
    "lat": -39.10850750000001,
    "lng": -67.0815726,
    "email": "lubricentrosur@hotmail.com",
    "phone": "(2984)732933",
    "type": "gestya"
  },
  {
    "name": "DE PIZZOL MAQUINAS AGRICOLAS SRL",
    "state": "salta",
    "city": "joaquin-v-gonzalez",
    "address": "Ruta 16 Km 606",
    "lat": -25.1160339,
    "lng": -64.132684,
    "email": "depizzoljoseluis@hotmail.com",
    "phone": "(03877)422147",
    "type": "gestya"
  },
  {
    "name": "TECNO SERVICIOS LAJITAS",
    "state": "salta",
    "city": "las-lajitas",
    "address": "Av. Francisco Ferrer 198",
    "lat": -24.7273378,
    "lng": -64.1956854,
    "email": "tecnoservicios-lajitas@hotmail.com",
    "phone": "(03471)15675724",
    "type": "gestya"
  },
  {
    "name": "LA AGRICOLA DEL NORTE",
    "state": "salta",
    "city": "metan",
    "address": "Jose Manuel Estrada 1093",
    "lat": -24.8049543,
    "lng": -65.3991033,
    "email": "rsgalippa42@gmail.com",
    "phone": "(03876)422267",
    "type": "gestya"
  },
  {
    "name": "PALLADINI RICARDO EMIDIO",
    "state": "salta",
    "city": "oran",
    "address": "General Paz 171",
    "lat": -23.1380879,
    "lng": -64.3267893,
    "email": "ricardopalladini@hotmail.com",
    "phone": "(03878)15459400",
    "type": "gestya"
  },
  {
    "name": "GRUPO CONDOR S.H.",
    "state": "salta",
    "city": "rosario-de-la-frontera",
    "address": "Mitre 44",
    "lat": -25.7976008,
    "lng": -64.9693735,
    "email": "grupocondor1999@gmail.com",
    "phone": "(03876)482751",
    "type": "gestya"
  },
  {
    "name": "NAVARRO CARLOS FABIAN",
    "state": "salta",
    "city": "rosario-de-la-frontera",
    "address": "Republica Del Peru 301 - Barrio : Parque",
    "lat": -25.7924473,
    "lng": -64.958212,
    "type": "gestya"
  },
  {
    "name": "S.E.A SERVICIO ELÉCTRICOS ARQUED",
    "state": "salta",
    "city": "-salta",
    "address": "Francisco Arias 628",
    "lat": -24.7984293,
    "lng": -65.4007871,
    "email": "arturoarqued@gmail.com",
    "phone": "(0387)154428819",
    "type": "gestya"
  },
  {
    "name": "PAR EQUIPAMIENTOS",
    "state": "salta",
    "city": "salta",
    "address": "Av. Gral. San Martin 1694",
    "lat": -24.7923839,
    "lng": -65.426413,
    "email": "parequipamientos.adm@hotmail.com",
    "phone": "(0387)155062486 - (0387)154220880",
    "type": "gestya"
  },
  {
    "name": "ROMERO JOSE SANTOS",
    "state": "salta",
    "city": "salta",
    "address": "Psje Miguel Araoz 25",
    "lat": -24.798912,
    "lng": -65.4032809,
    "email": "joseromero.03.86@gmail.com",
    "phone": "(3874)4031858",
    "type": "gestya"
  },
  {
    "name": "SALTA PROTECCIONES",
    "state": "salta",
    "city": "salta",
    "address": "Av. De Las Americas N° 780",
    "lat": -24.8105072,
    "lng": -65.3855003,
    "email": "saltaprotecciones@gmail.com",
    "phone": "(0387)154027075",
    "type": "gestya"
  },
  {
    "name": "RAS HERRAMIENTA",
    "state": "salta",
    "city": "tartagal",
    "address": "9 De Julio 387",
    "lat": -22.5209896,
    "lng": -63.80308399999999,
    "email": "ras_herramientas@yahoo.com.ar",
    "phone": "(03873)426451",
    "type": "gestya"
  },
  {
    "name": "FEDERIGI RICARDO EMILIO",
    "state": "san-juan",
    "city": "san-juan",
    "address": "Taller Movil",
    "lat": -31.5182934,
    "lng": -68.515323,
    "email": "rfederigi@gmail.com",
    "phone": "(0266)154506738",
    "type": "gestya"
  },
  {
    "name": "CUELLO CAMIONES",
    "state": "san-juan",
    "city": "villa-general-acha",
    "address": "Calle 5 N° 685 (Oeste) Va. Krause",
    "lat": -31.5351074,
    "lng": -68.5385941,
    "email": "cuellocam@gmail.com",
    "phone": "(0264)4283186",
    "type": "gestya"
  },
  {
    "name": "ELECTRO REY",
    "state": "san-luis",
    "city": "justo-daract",
    "address": "Almirante Brown 37",
    "lat": -33.859141,
    "lng": -65.1812116,
    "email": "electrorey@hotmail.com",
    "phone": "(02657)480104",
    "type": "gestya"
  },
  {
    "name": "CMA LOGISTICA Y SERVICIOS",
    "state": "san-luis",
    "city": "san-luis",
    "address": "Av Justo Daract 2651",
    "lat": -33.2808067,
    "lng": -66.33769629999999,
    "email": "cmalogisticayservicios@gmail.com",
    "phone": "(0266)154647520",
    "type": "gestya"
  },
  {
    "name": "FABIAN MARCELO MARTIN S.R.L.",
    "state": "san-luis",
    "city": "san-luis",
    "address": "Av Lafinur 47 Sur",
    "lat": -33.3132231,
    "lng": -66.3441794,
    "email": "administracion@grupomartin.com.ar",
    "phone": "(0266)4425693",
    "type": "gestya"
  },
  {
    "name": "LUBRISERVICE VANS S.H.",
    "state": "san-luis",
    "city": "san-luis",
    "address": "España 1542",
    "lat": -33.29398404687647,
    "lng": -66.34736890799695,
    "email": "lubriservicevans@gmail.com",
    "phone": "(0266)4639272",
    "type": "gestya"
  },
  {
    "name": "DF SERVICIOS MERLO",
    "state": "san-luis",
    "city": "villa-de-merlo",
    "address": "Taller Móvil",
    "lat": -32.3478326,
    "lng": -65.0157565,
    "phone": "(03482)15689917",
    "type": "gestya"
  },
  {
    "name": "SERVICIO TECNICO PAGLIERO",
    "state": "san-luis",
    "city": "villa-mercedes",
    "address": "General Paz 1678",
    "lat": -33.6628795,
    "lng": -65.4575651,
    "email": "serviciotecnicopagliero@gmail.com",
    "phone": "(02657)15542529",
    "type": "gestya"
  },
  {
    "name": "SOLUCIONES Y SERVICIOS S.A.S",
    "state": "san-luis",
    "city": "villa-mercedes",
    "address": "Presidente Peron 270",
    "lat": -33.6903603,
    "lng": -65.4553336,
    "email": "Dzapata@syssas.com.ar;Gyacosta@syssas.com.ar",
    "phone": "(02657)15529256",
    "type": "gestya"
  },
  {
    "name": "SANTA CRUZ BOBINADOS",
    "state": "santa-cruz",
    "city": "caleta-olivia",
    "address": "Ruta 12",
    "lat": -46.4716,
    "lng": -67.5314726,
    "email": "administracion@bobinados-scb.com.ar",
    "phone": "(0297)4859006",
    "type": "gestya"
  },
  {
    "name": "ALCALDE EDUARDO RUBEN",
    "state": "santa-cruz",
    "city": "las-heras",
    "address": "Ramos Mejias 414",
    "lat": -46.5379058,
    "lng": -68.9394363,
    "email": "alcaldeservicios@hotmail.com",
    "phone": "(0297)4975435",
    "type": "gestya"
  },
  {
    "name": "ZANOTTI HNOS",
    "state": "santa-cruz",
    "city": "lsa-heras",
    "address": "Lote 10",
    "lat": -46.53943169999999,
    "lng": -68.92992199999999,
    "email": "gerencia@zanottihnossrl.com",
    "phone": "(0297)154030929",
    "type": "gestya"
  },
  {
    "name": "LABORATORIO DIESEL PALACIOS",
    "state": "santa-cruz",
    "city": "rio-gallegos",
    "address": "Florencio Catrihuala 67",
    "lat": -51.6273493,
    "lng": -69.2482454,
    "email": "dieselpalacio@hotmail.com",
    "phone": "(02966)15640887",
    "type": "gestya"
  },
  {
    "name": "VRG SA",
    "state": "santa-cruz",
    "city": "rio-gallegos",
    "address": "Avda Balbin 1498 (A 200 Mts De La Autovia ( Frente A Vesprini)",
    "lat": -51.6232352,
    "lng": -69.2158996,
    "email": "administracioncrv@vrgsa.com.ar;daniel.peralta@vrgsa.com.ar;proveedores@vrgsa.com.ar",
    "phone": "(02966)442081",
    "type": "gestya"
  },
  {
    "name": "ELECTRICIDAD DEL AUTOMOTOR EHR",
    "state": "santa-fe",
    "city": "alcorta",
    "address": "Balcarce 450",
    "lat": -33.5449554,
    "lng": -61.1161573,
    "email": "tallerehr@yahoo.com.ar",
    "phone": "(03465)15652891 - (03465)470684",
    "type": "gestya"
  },
  {
    "name": "TALLER EL COLONO",
    "state": "santa-fe",
    "city": "alejandra",
    "address": "Avenida San Martin 1469",
    "lat": -29.9062198,
    "lng": -59.82683890000001,
    "email": "luissosa_taller@outlook.com",
    "phone": "(03405)492103",
    "type": "gestya"
  },
  {
    "name": "BROLLO REPRESENTACIONES S.R.L.",
    "state": "santa-fe",
    "city": "alvear",
    "address": "Ruta Pcial. 22-S Km 3.6 (Galpon A)",
    "lat": -31.4338245,
    "lng": -61.9986862,
    "email": "tecnicabrollo@gmail.com",
    "phone": "(0341)152100115",
    "type": "gestya"
  },
  {
    "name": "AVARUCCI FRANCISCO",
    "state": "santa-fe",
    "city": "arequito",
    "address": "Monseñor Pugliese 1239",
    "lat": -33.1470158,
    "lng": -61.4672115,
    "email": "franciscoavarucci@yahoo.com.ar",
    "phone": "(03464)471411 / 470571",
    "type": "gestya"
  },
  {
    "name": "CANCIAN JESUS ANDRES",
    "state": "santa-fe",
    "city": "arroyo-ceibal",
    "address": "Ruta 11 Km 839",
    "lat": -30.3671944,
    "lng": -60.3978739,
    "email": "jesus_cancian@hotmail.com",
    "phone": "(3482)15682596",
    "type": "gestya"
  },
  {
    "name": "TALLER EL NITO",
    "state": "santa-fe",
    "city": "arroyo-seco",
    "address": "Islas Malvinas 314",
    "lat": -33.1609483,
    "lng": -60.51704340000001,
    "email": "adm@tallerelnito.com.ar",
    "phone": "(03402)427336",
    "type": "gestya"
  },
  {
    "name": "CENTRO SE SERVICIOS NORTE",
    "state": "santa-fe",
    "city": "avellaneda",
    "address": "Calle 21 N° 1630",
    "lat": -29.1249347,
    "lng": -59.6455058,
    "email": "avellaneda@csnorte.com.ar",
    "phone": "(03482)481691",
    "type": "gestya"
  },
  {
    "name": "COL-VEN S.A. (CIT)",
    "state": "santa-fe",
    "city": "avellaneda",
    "address": "Calle 22 N° 1525",
    "lat": -29.1237523,
    "lng": -59.6531046,
    "type": "gestya"
  },
  {
    "name": "PONCE ALDO DANIEL",
    "state": "santa-fe",
    "city": "avellaneda",
    "address": "Avenida Ausonia N° 365",
    "lat": -29.1174521,
    "lng": -59.65863410000001,
    "email": "daanielponce@live.com",
    "phone": "(3482)15661267",
    "type": "gestya"
  },
  {
    "name": "SEGRETIN CESAR ANTONIO",
    "state": "santa-fe",
    "city": "avellaneda",
    "address": "Calle 23 N° 820",
    "lat": -29.1248445,
    "lng": -59.6553826,
    "email": "cesar.segretin@gmail.com",
    "phone": "(03482)15537770",
    "type": "gestya"
  },
  {
    "name": "SARTOR EDGARDO FRANCISCO",
    "state": "santa-fe",
    "city": "calchaqui",
    "address": "Juan De Garay N° 1346",
    "lat": -29.8927944,
    "lng": -60.28115129999999,
    "email": "edgardosartor1346@gmail.com",
    "phone": "(03483)470684",
    "type": "gestya"
  },
  {
    "name": "ENZO CIATTAGLIA S.R.L.",
    "state": "santa-fe",
    "city": "canada-de-gomez",
    "address": "Marconi 416",
    "lat": -32.8185974,
    "lng": -61.38174840000001,
    "email": "admin@ciattaglia.com.ar",
    "phone": "(03471)424618",
    "type": "gestya"
  },
  {
    "name": "EZQ-CAR ELECTRICIDAD DEL AUTOMOTOR",
    "state": "santa-fe",
    "city": "canada-rosquin",
    "address": "Malvinas Argentinas 742",
    "lat": -32.0593233,
    "lng": -61.5983465,
    "email": "ezqcar@yahoo.com.ar",
    "phone": "(03401)470544",
    "type": "gestya"
  },
  {
    "name": "NARDONE MAXIMILIANO ANDRES",
    "state": "santa-fe",
    "city": "carlos-pellegrini",
    "address": "25 De Mayo 927",
    "lat": -32.0495113,
    "lng": -61.78099369999999,
    "email": "liminardone@gmail.com",
    "phone": "(03401)15405983",
    "type": "gestya"
  },
  {
    "name": "SIMONI HUGO RAUL",
    "state": "santa-fe",
    "city": "carlos-pellegrini",
    "address": "Guido Spano 564",
    "lat": -32.0453513,
    "lng": -61.786709,
    "email": "simoni@carpell.com.ar",
    "phone": "(03401)480430",
    "type": "gestya"
  },
  {
    "name": "TAO S.R.L.",
    "state": "santa-fe",
    "city": "casilda",
    "address": "Ruta 33 Km. 744.5",
    "lat": -33.054203,
    "lng": -61.1593295,
    "email": "taorepuestos@hotmail.com",
    "phone": "(03464)15590700",
    "type": "gestya"
  },
  {
    "name": "METAL CAYASTA",
    "state": "santa-fe",
    "city": "cayasta",
    "address": "Ruta Provincial 1 Km 73",
    "lat": -31.1935079,
    "lng": -60.158535,
    "email": "metalcayasta18@gmail.com",
    "phone": "(03405)493541",
    "type": "gestya"
  },
  {
    "name": "OSCAR Y MARTIN SALICRU S.A.",
    "state": "santa-fe",
    "city": "ceres",
    "address": "Ruta Nac 34 Km 388.7",
    "lat": -29.8817186,
    "lng": -61.9460573,
    "email": "inessalicru@hotmail.com",
    "phone": "(03491)420259",
    "type": "gestya"
  },
  {
    "name": "FORZA S.A.S.",
    "state": "santa-fe",
    "city": "chanar-ladeado",
    "address": "Urquiza 534",
    "lat": -33.3261887,
    "lng": -62.0383309,
    "phone": "(03468)15435698",
    "type": "gestya"
  },
  {
    "name": "BELLETTI INYECCION",
    "state": "santa-fe",
    "city": "el-trebol",
    "address": "Eva Peron 522",
    "lat": -32.195855,
    "lng": -61.70746889999999,
    "email": "belletti_inyeccion@arnet.com.ar",
    "phone": "(03401)15644546",
    "type": "gestya"
  },
  {
    "name": "TALLER MECANICO RAUL TARQUINI",
    "state": "santa-fe",
    "city": "empalme-villa-constitucion",
    "address": "San Martín 781",
    "lat": -33.2248994,
    "lng": -60.33280120000001,
    "email": "raultarquini@gmail.com",
    "phone": "(03400)493351",
    "type": "gestya"
  },
  {
    "name": "BURGI JUAN CARLOS",
    "state": "santa-fe",
    "city": "esperanza",
    "address": "Santa Fe 338",
    "lat": -31.4691406,
    "lng": -60.93833609999999,
    "phone": "(03496)424165",
    "type": "gestya"
  },
  {
    "name": "BERTUCCI SANTIAGO LUIS",
    "state": "santa-fe",
    "city": "florencia",
    "address": "Juan De Garay 730",
    "lat": -28.0409135,
    "lng": -59.22190519999999,
    "email": "byvrepuestos@hotmail.com",
    "phone": "(03482)15415765",
    "type": "gestya"
  },
  {
    "name": "MECANICA VERA",
    "state": "santa-fe",
    "city": "florencia",
    "address": "Julio N. Turbay 63",
    "lat": -28.0406012,
    "lng": -59.2223285,
    "email": "franvera3893@gmail.com",
    "phone": "(3482)219791",
    "type": "gestya"
  },
  {
    "name": "MACHIN HUGO LUIS",
    "state": "santa-fe",
    "city": "franck",
    "address": "Moreno 2240",
    "lat": -31.583398,
    "lng": -60.94052139999999,
    "email": "machinservicio_oficial@hotmail.com",
    "phone": "(0342)4930361",
    "type": "gestya"
  },
  {
    "name": "ELECTROMECANICA JP",
    "state": "santa-fe",
    "city": "frontera",
    "address": "Calle 9 Nº 126",
    "lat": -31.4223222,
    "lng": -62.05818859999999,
    "email": "prunellojavier@gmail.com",
    "phone": "(03564)436473",
    "type": "gestya"
  },
  {
    "name": "CRISTIAN VELAZCO",
    "state": "santa-fe",
    "city": "gobernador-crespo",
    "address": "Zona Rural",
    "lat": -30.3620638,
    "lng": -60.4020713,
    "email": "cristian.vel353@gmail.com",
    "phone": "(03498)15458409",
    "type": "gestya"
  },
  {
    "name": "MECANICA 9 DE JULIO",
    "state": "santa-fe",
    "city": "gobernador-crespo",
    "address": "Ruta Nacional N° 11 Km 619",
    "lat": -30.3589786,
    "lng": -60.3971439,
    "email": "dcortina81@hotmail.com",
    "type": "gestya"
  },
  {
    "name": "SARTOR ROBERTO CARLOS",
    "state": "santa-fe",
    "city": "gobernador-crespo",
    "address": "Ruta 11 Y Estanislao Zeballos",
    "lat": -30.3600478,
    "lng": -60.4004084,
    "email": "lili-luraschi@hotmail.com",
    "phone": "(03498)480702",
    "type": "gestya"
  },
  {
    "name": "VELAZCO CRISTIAN MARCELO",
    "state": "santa-fe",
    "city": "gobernador-crespo",
    "address": "Belgrano Y Juan De Garay 0-Esquina: Belgrano Y Juan De G",
    "type": "gestya"
  },
  {
    "name": "MECANICA EDU-CAR",
    "state": "santa-fe",
    "city": "hersilia",
    "address": "Ruta 34 (N) Km 370",
    "lat": -30.002139,
    "lng": -61.83055849999999,
    "email": "jorgemaiztegui7@gmail.com",
    "phone": "(03491)494237",
    "type": "gestya"
  },
  {
    "name": "BERTORELLO ARIEL EDUARDO",
    "state": "santa-fe",
    "city": "humberto-primo",
    "address": "Mendoza Norte 262",
    "lat": -30.8678618,
    "lng": -61.3505239,
    "email": "arielbertorello2009@hotmail.com",
    "phone": "(03493)15416114",
    "type": "gestya"
  },
  {
    "name": "BERTORELLO ESTEBAN MARCOS",
    "state": "santa-fe",
    "city": "humberto-primo",
    "address": "Mendoza Norte 262",
    "lat": -30.8678618,
    "lng": -61.3505239,
    "email": "bertorelloesteban8@gmail.com",
    "phone": "(3493)669123",
    "type": "gestya"
  },
  {
    "name": "ELECTROMECANICA ZAGAYNY",
    "state": "santa-fe",
    "city": "humboldt",
    "address": "Urquiza 2231",
    "lat": -31.3974594,
    "lng": -61.0830531,
    "email": "electromecanicazagayny@gmail.com",
    "phone": "(03496)480033",
    "type": "gestya"
  },
  {
    "name": "ELECTROMECANICA RIBOLDI",
    "state": "santa-fe",
    "city": "la-criolla",
    "address": "Av. Estanislao Lopez 147",
    "lat": -30.2232453,
    "lng": -60.36037750000001,
    "email": "electromecanicariboldi@gcrespo.com.ar",
    "phone": "(3498)407952 - (3498)495254",
    "type": "gestya"
  },
  {
    "name": "LENARDUZZI JAVIER RAMON",
    "state": "santa-fe",
    "city": "la-criolla",
    "address": "Entre Rios N° 441",
    "lat": -30.2263217,
    "lng": -60.3630381,
    "email": "lenarduzzijavier@hotmail.com",
    "phone": "(03498)495608",
    "type": "gestya"
  },
  {
    "name": "RIBOLDI RAUL LUIS",
    "state": "santa-fe",
    "city": "la-criolla",
    "address": "Estanislao Lopez 147",
    "lat": -30.2232453,
    "lng": -60.36037750000001,
    "email": "electromecanicariboldi@gcrespo.com.ar",
    "phone": "(03498)495216",
    "type": "gestya"
  },
  {
    "name": "SANDRIGO RODRIGO JAVIER",
    "state": "santa-fe",
    "city": "lanteri",
    "address": "Zona Urbana",
    "lat": -28.840932,
    "lng": -59.6386246,
    "email": "rodrigosandrigo3575@gmail.com",
    "phone": "(03482)474112",
    "type": "gestya"
  },
  {
    "name": "JMA AUDIO CAR",
    "state": "santa-fe",
    "city": "las-parejas",
    "address": "Avenida 13 N° 725",
    "lat": -32.6813791,
    "lng": -61.5264646,
    "email": "jonatananuncibay@gmail.com",
    "phone": "(3471)598574",
    "type": "gestya"
  },
  {
    "name": "M Y A CLIMATIZACION",
    "state": "santa-fe",
    "city": "las-rosas",
    "address": "Avenida Dickinson 1509 (Ruta 178)",
    "lat": -32.6833819,
    "lng": -61.52542529999999,
    "email": "maclimatizacionlr@gmail.com",
    "phone": "(03471)15684321",
    "type": "gestya"
  },
  {
    "name": "MOYANO LUIS HORACIO",
    "state": "santa-fe",
    "city": "las-rosas",
    "address": "Italia 680",
    "lat": -32.4758445,
    "lng": -61.5812949,
    "email": "suc.moyanoluis@gmail.com",
    "phone": "(03471)451442",
    "type": "gestya"
  },
  {
    "name": "FILIPON GUSTAVO ANTONIO",
    "state": "santa-fe",
    "city": "las-toscas",
    "address": "Calle 2 Nro. 1440",
    "lat": -28.3543593,
    "lng": -59.260009,
    "email": "electromecanicafili@hotmail.com",
    "phone": "(03482)15584333",
    "type": "gestya"
  },
  {
    "name": "COLOMBARA CRISTIAN PEDRO",
    "state": "santa-fe",
    "city": "llambi-campbell",
    "address": "Sarmiento 113",
    "lat": -31.1884533,
    "lng": -60.7475257,
    "email": "cristiancolombara@yahoo.com.ar",
    "phone": "(03497)420527",
    "type": "gestya"
  },
  {
    "name": "MULLER NICOLAS",
    "state": "santa-fe",
    "city": "lopez",
    "address": "Aurelia 1579",
    "lat": -31.9068089,
    "lng": -61.2790186,
    "email": "serviciosngmuller@gmail.com",
    "phone": "(03404)15533023",
    "type": "gestya"
  },
  {
    "name": "SANDRIGO JAVIER HERNAN",
    "state": "santa-fe",
    "city": "los-quirquinchos",
    "address": "Sarmiento 711",
    "lat": -33.3785128,
    "lng": -61.71363230000001,
    "email": "javiersandrigo@hotmail.com",
    "phone": "(03465)496185",
    "type": "gestya"
  },
  {
    "name": "ANALEX",
    "state": "santa-fe",
    "city": "malabrigo",
    "address": "Ruta Nacional 11 Km 748",
    "lat": -29.3568194,
    "lng": -59.9644445,
    "email": "analex_sanyor@hotmail.com",
    "phone": "(03482)15331479",
    "type": "gestya"
  },
  {
    "name": "LAZZARINI GERARDO JESUS",
    "state": "santa-fe",
    "city": "marcelino-escalada",
    "address": "Ruta 11 Y Rene Grenon",
    "lat": -30.5779151,
    "lng": -60.4666999,
    "phone": "(03498)493137",
    "type": "gestya"
  },
  {
    "name": "ELECTROMECANICA EL AGUILA",
    "state": "santa-fe",
    "city": "piamonte",
    "address": "San Martin 650",
    "lat": -32.1428822,
    "lng": -61.9758945,
    "email": "daisid@hotmail.com",
    "phone": "(03401)455214",
    "type": "gestya"
  },
  {
    "name": "MATEY S.R.L.",
    "state": "santa-fe",
    "city": "puerto-general-san-martin",
    "address": "Vucetich 1545",
    "lat": -32.6955525,
    "lng": -60.7586571,
    "email": "compras@mateysrl.com.ar",
    "phone": "(0341)154006921",
    "type": "gestya"
  },
  {
    "name": "CASTELLI GRACIELA BEATRIZ",
    "state": "santa-fe",
    "city": "pujato",
    "address": "Rivadavia N°756",
    "lat": -33.0197427,
    "lng": -61.03858880000001,
    "email": "edgardodallavalle@gmail.com",
    "phone": "(03464)15444936",
    "type": "gestya"
  },
  {
    "name": "ROSSI GASTON ANGEL",
    "state": "santa-fe",
    "city": "pujato",
    "address": "9 De Julio 1045",
    "lat": -33.0193517,
    "lng": -61.04562999999999,
    "email": "gaston.pr14@gmail.com",
    "phone": "(03464)15581190",
    "type": "gestya"
  },
  {
    "name": "BOSIO GUSTAVO DARIO",
    "state": "santa-fe",
    "city": "rafaela",
    "address": "Domingo Matheu 1282",
    "lat": -31.2648011,
    "lng": -61.50926589999999,
    "email": "bosiohnos.servicios@gmail.com",
    "phone": "(03492)436841",
    "type": "gestya"
  },
  {
    "name": "MECANICA SACCONE",
    "state": "santa-fe",
    "city": "rafaela",
    "address": "Ayacucho 983",
    "lat": -31.2427437,
    "lng": -61.49659939999999,
    "email": "sergiobsaccone@gmail.com",
    "phone": "(03492)15610860",
    "type": "gestya"
  },
  {
    "name": "BASABILBASO FACUNDO",
    "state": "santa-fe",
    "city": "reconquista",
    "address": "Jorge Newbery 963",
    "lat": -29.1527165,
    "lng": -59.6493282,
    "type": "gestya"
  },
  {
    "name": "CENTRO DE SERVICIOS COLVEN",
    "state": "santa-fe",
    "city": "reconquista",
    "address": "Bv. Irigoyen 639",
    "lat": -29.1428228,
    "lng": -59.6556161,
    "email": "centroservicios@colven.com.ar",
    "phone": "(03482)438800",
    "type": "gestya"
  },
  {
    "name": "MILTON ZORATTI SERVICIO A CAMPO",
    "state": "santa-fe",
    "city": "reconquista",
    "address": "Taller Movil",
    "lat": -29.1448193,
    "lng": -59.64352419999999,
    "email": "zorattimilton05@gmail.com",
    "phone": "(03482)15625733 - (03482)15241568",
    "type": "gestya"
  },
  {
    "name": "ROBERTO MAURICIO",
    "state": "santa-fe",
    "city": "reconquista",
    "address": "Taller Movil",
    "lat": -29.1448193,
    "lng": -59.64352419999999,
    "email": "mroberto47@hotmail.com",
    "phone": "(03482)15663131",
    "type": "gestya"
  },
  {
    "name": "ELECTROMECANICA BERGAMINI",
    "state": "santa-fe",
    "city": "recreo",
    "address": "Ruta Nacional 11 Km 478.5",
    "lat": -31.522422,
    "lng": -60.7241384,
    "email": "electromecanicabergamini@hotmail.com",
    "phone": "(0342)4905127",
    "type": "gestya"
  },
  {
    "name": "DAWI S.R.L.",
    "state": "santa-fe",
    "city": "roldan",
    "address": "Catamarca 1204",
    "lat": -32.9040063,
    "lng": -60.9157811,
    "email": "info@dawi.com.ar",
    "phone": "(0341)4960468",
    "type": "gestya"
  },
  {
    "name": "AZCUA CENTRO DE SERVICIOS",
    "state": "santa-fe",
    "city": "rosario",
    "address": "Oroño 4774",
    "lat": -32.9931147,
    "lng": -60.66563519999999,
    "email": "administracion@azcua.com",
    "phone": "(0341)4614720",
    "type": "gestya"
  },
  {
    "name": "ELECTROMECANICA FUMAGALLI",
    "state": "santa-fe",
    "city": "rosario",
    "address": "Darragueira 2255",
    "lat": -32.8926355,
    "lng": -60.6959056,
    "email": "marianofumagalli@outlook.com",
    "phone": "(0341)4557797",
    "type": "gestya"
  },
  {
    "name": "ELECTROMECANICA OMAR S.R.L.",
    "state": "santa-fe",
    "city": "rosario",
    "address": "Ovidio Lagos 4519c",
    "lat": -32.9880472,
    "lng": -60.6723103,
    "email": "omarelectromecanica@hotmail.com",
    "phone": "(0341)4636456 - (0341)4661950",
    "type": "gestya"
  },
  {
    "name": "ELECTRONICA CENTRAL",
    "state": "santa-fe",
    "city": "rosario",
    "address": "Ovidio Lagos 4558 D",
    "lat": -32.9893387,
    "lng": -60.67325999999999,
    "email": "info@electronicacentral.com.ar",
    "phone": "(0341)156640824",
    "type": "gestya"
  },
  {
    "name": "ELECTRONICA CENTRAL",
    "state": "santa-fe",
    "city": "rosario",
    "address": "Av. Ovidio Lagos 4558 D",
    "lat": -32.9893387,
    "lng": -60.67325999999999,
    "email": "aire@electronicacentral.com.ar",
    "phone": "(0341)4640258 - (0341)6618603",
    "type": "gestya"
  },
  {
    "name": "ELECTRONICA CENTRAL (SUCURSAL OESTE)",
    "state": "santa-fe",
    "city": "rosario",
    "address": "San Lorenzo 6107",
    "lat": -32.9344475,
    "lng": -60.70623479999999,
    "email": "info@electronicacentral.com.ar",
    "phone": "(0341)4589566",
    "type": "gestya"
  },
  {
    "name": "REMER S.R.L.",
    "state": "santa-fe",
    "city": "rosario",
    "address": "27 De Febrero 3433",
    "lat": -32.9621169,
    "lng": -60.6755343,
    "email": "remerrosario@gmail.com",
    "phone": "(0341)7926042",
    "type": "gestya"
  },
  {
    "name": "CENTRAL AUTOPARTES S.R.L.",
    "state": "santa-fe",
    "city": "rosario-sud",
    "address": "Provincias Unidas 1220-Barrio:Belgrano",
    "lat": -32.9427228612245,
    "lng": -60.7126908877551,
    "email": "administracion@centralautopartes.com.ar",
    "phone": "(0341)5638885 - (0341)6466053",
    "type": "gestya"
  },
  {
    "name": "MARTINENCO PEDRO LUIS",
    "state": "santa-fe",
    "city": "rufino",
    "address": "Alem Vieyra 1325",
    "lat": -34.274902,
    "lng": -62.71574059999999,
    "email": "martinencopedro@gmail.com",
    "phone": "(03382)429421",
    "type": "gestya"
  },
  {
    "name": "REY JOSE IGNACIO",
    "state": "santa-fe",
    "city": "san-carlos-centro",
    "address": "San Lorenzo 568",
    "lat": -31.7361437,
    "lng": -61.09625029999999,
    "type": "gestya"
  },
  {
    "name": "FURLANI CRISTIAN EDUARDO",
    "state": "santa-fe",
    "city": "san-cristobal",
    "address": "Juan B. Justo Nro 244",
    "lat": -30.2998235,
    "lng": -61.5136037,
    "phone": "(03408)15671521",
    "type": "gestya"
  },
  {
    "name": "MANCINI REPUESTOS PESADOS",
    "state": "santa-fe",
    "city": "san-genaro",
    "address": "Ruta Provincial 65 Y Buschiazzo",
    "lat": -32.3726922,
    "lng": -61.3509731,
    "email": "mancinirepuestossg@gmail.com",
    "phone": "(03401)15590629 - (03401)15590630",
    "type": "gestya"
  },
  {
    "name": "BRUSASCA JORGE OSCAR",
    "state": "santa-fe",
    "city": "san-gregorio",
    "address": "Lisandro De La Torre 661",
    "lat": -34.3282014,
    "lng": -62.03779299999999,
    "email": "jorgebrusasca@hotmail.com.ar",
    "phone": "(03382)470276",
    "type": "gestya"
  },
  {
    "name": "MO HUGO ALBERTO",
    "state": "santa-fe",
    "city": "san-guillermo",
    "address": "Alberdi 484",
    "lat": -30.3619347,
    "lng": -61.92030159999999,
    "email": "hugomo@sanguillermo.com.ar",
    "phone": "(03562)467449",
    "type": "gestya"
  },
  {
    "name": "BLANCHE SPORT",
    "state": "santa-fe",
    "city": "san-javier",
    "address": "Santiago Cabral 759",
    "lat": -30.5778491,
    "lng": -59.9261504,
    "email": "joakinblanche@hotmail.com",
    "phone": "(3405)15406737",
    "type": "gestya"
  },
  {
    "name": "MG ELECTRONICA",
    "state": "santa-fe",
    "city": "san-jorge",
    "address": "Av. Jorge Ortiz 1966",
    "lat": -31.89708229999999,
    "lng": -61.8598807,
    "email": "meugomez@arnet.com.ar",
    "phone": "(03406)441099",
    "type": "gestya"
  },
  {
    "name": "AGUIRRE ROBERTO ANDRES",
    "state": "santa-fe",
    "city": "san-justo",
    "address": "Bernardino Rivadavia 2830",
    "lat": -30.7799325,
    "lng": -60.59598949999999,
    "email": "serviciomecanico_ara@hotmail.com",
    "phone": "(03498)423314",
    "type": "gestya"
  },
  {
    "name": "ELLIFF ADOLFO GUILLERMO",
    "state": "santa-fe",
    "city": "san-lorenzo",
    "address": "Presidente Perón 1889",
    "lat": -32.6948165,
    "lng": -60.749734,
    "phone": "(03476)427222",
    "type": "gestya"
  },
  {
    "name": "TECNOCAR",
    "state": "santa-fe",
    "city": "san-salvador",
    "address": "Boulevard Villaguay 242",
    "lat": -31.6258028,
    "lng": -58.5076214,
    "email": "rubenangelchas@yahoo.com.ar",
    "phone": "(0345)4911261",
    "type": "gestya"
  },
  {
    "name": "CARSIL SERVICIOS",
    "state": "santa-fe",
    "city": "santa-fe",
    "address": "Av. Aristobulo Del Valle 10900",
    "lat": -31.5694357,
    "lng": -60.6894078,
    "email": "carsilservicios@gmail.com",
    "phone": "(0342)4690966",
    "type": "gestya"
  },
  {
    "name": "SEGURIDAD VEHICULAR",
    "state": "santa-fe",
    "city": "santa-fe",
    "address": "Blas Parera 5132",
    "lat": -31.6167536,
    "lng": -60.7171804,
    "email": "info@seguridadvehicular.com",
    "phone": "(0342)4884677",
    "type": "gestya"
  },
  {
    "name": "MASUZZO MARTIN MAXIMILIANO",
    "state": "santa-fe",
    "city": "santa-rosa",
    "address": "25 De Mayo S/N° 0-Entre Las Calles: Fray Rossi Y 1° De Mayo",
    "lat": -31.82386,
    "lng": -64.97141,
    "type": "gestya"
  },
  {
    "name": "VALERI RAUL OSCAR",
    "state": "santa-fe",
    "city": "santo-tome",
    "address": "Ruta 11 - Km 457",
    "lat": -31.6855631,
    "lng": -60.7788694,
    "email": "raulivaleri@hotmail.com",
    "phone": "(0342)474-0754",
    "type": "gestya"
  },
  {
    "name": "ELECTROMECANICA MASERA",
    "state": "santa-fe",
    "city": "san-vicente",
    "address": "Avellaneda 420",
    "lat": -31.6962425,
    "lng": -61.5714729,
    "email": "vamasera@outlook.com",
    "phone": "(03492)470183",
    "type": "gestya"
  },
  {
    "name": "TALLER DE ELECTRICIDAD DEL AUTOMOTOR EDGARDO LARREA",
    "state": "santa-fe",
    "city": "serodino",
    "address": "Italia S/N",
    "lat": -32.6055713,
    "lng": -60.948384,
    "email": "edgardolarrea@hotmail.com",
    "phone": "(03476)15658986",
    "type": "gestya"
  },
  {
    "name": "INGARAMO WALTER SILVINO",
    "state": "santa-fe",
    "city": "suardi",
    "address": "Garigliano 247",
    "lat": -30.5344101,
    "lng": -61.96089910000001,
    "email": "regino1954@hotmail.com",
    "phone": "(03562)477653",
    "type": "gestya"
  },
  {
    "name": "ELECTROMECANICA FERREYRA",
    "state": "santa-fe",
    "city": "teodelina",
    "address": "San Martin 857",
    "lat": -34.1911845,
    "lng": -61.5316335,
    "email": "electromecanicaferreyra@gmail.com",
    "phone": "(03462)15599795",
    "type": "gestya"
  },
  {
    "name": "SCOCCIA MIGUEL ANGEL",
    "state": "santa-fe",
    "city": "timbues",
    "address": "Taller Móvil",
    "lat": -32.6672917,
    "lng": -60.7926806,
    "email": "miguelscocia31@gmail.com",
    "phone": "(3476)357089",
    "type": "gestya"
  },
  {
    "name": "SERRA MAURICIO",
    "state": "santa-fe",
    "city": "tostado",
    "address": "Art Ramon Villarreal 1780",
    "lat": -29.229162,
    "lng": -61.7717196,
    "email": "elchispazotostado1@gmail.com",
    "phone": "(03491)470453",
    "type": "gestya"
  },
  {
    "name": "TOSTADO SERVICIOS",
    "state": "santa-fe",
    "city": "tostado",
    "address": "Comandante Razzetti 649",
    "lat": -29.2314421,
    "lng": -61.76524179999999,
    "type": "gestya"
  },
  {
    "name": "TALLER DE ELECTRICIDAD DEL AUTOMOTOR REARTES",
    "state": "santa-fe",
    "city": "totoras",
    "address": "Alte. Brown Y Balcarce",
    "lat": -32.5824129,
    "lng": -61.16130750000001,
    "email": "luchidottori@hotmail.com",
    "phone": "(03476)460584",
    "type": "gestya"
  },
  {
    "name": "ELECTROMECANICA GARDEÑES",
    "state": "santa-fe",
    "city": "venado-tuerto",
    "address": "Rivadavia 1779 Esq Ruta Nac 8",
    "lat": -33.7512142,
    "lng": -61.976973,
    "email": "electromecanica@gardenes.com.ar",
    "phone": "(03462)424030",
    "type": "gestya"
  },
  {
    "name": "FRENOS Y SERVICIOS SA",
    "state": "santa-fe",
    "city": "venado-tuerto",
    "address": "Avda Cibelli 1151",
    "lat": -33.7311408,
    "lng": -61.9672309,
    "phone": "(3462)595896",
    "type": "gestya"
  },
  {
    "name": "ELECTROMECANICA PIGHIN",
    "state": "santa-fe",
    "city": "vera",
    "address": "Pte Peron 1009",
    "lat": -29.47004009999999,
    "lng": -60.20538329999999,
    "type": "gestya"
  },
  {
    "name": "ELECTROMECANICA CARRIZO",
    "state": "santa-fe",
    "city": "villa-canas",
    "address": "Avda 64 N° 47",
    "lat": -33.9971117,
    "lng": -61.6099468,
    "email": "electrocarrizo@hotmail.com",
    "phone": "(03462)450079",
    "type": "gestya"
  },
  {
    "name": "MUSSIN ARNALDO JOSE",
    "state": "santa-fe",
    "city": "villa-ocampo",
    "address": "Bartolome Mitre 1633",
    "lat": -28.4850464,
    "lng": -59.3560618,
    "email": "mussinelectricidad-villaocampo@hotmail.com",
    "phone": "(03482)466207",
    "type": "gestya"
  },
  {
    "name": "ELECTROJUANCITO",
    "state": "santiago-del-estero",
    "city": "anatuya",
    "address": "Ruta 92 Y Circunvalación",
    "lat": -28.4557538,
    "lng": -62.8449811,
    "email": "electro_juancito@yahoo.com.ar",
    "phone": "(3844)414317",
    "type": "gestya"
  },
  {
    "name": "ELECTROMECANICA JUANCITO",
    "state": "santiago-del-estero",
    "city": "anatuya",
    "address": "Ruta 92 Y Circunvalacion",
    "lat": -28.4557538,
    "lng": -62.8449811,
    "email": "electro_juancito@yahoo.com.ar",
    "phone": "(03844)421999",
    "type": "gestya"
  },
  {
    "name": "RG REPUESTOS",
    "state": "santiago-del-estero",
    "city": "bandera",
    "address": "Bv. Belgrano 373",
    "lat": -28.8890585,
    "lng": -62.2698088,
    "email": "rubendrodriguez1974@gmail.com",
    "phone": "(3857)15473474",
    "type": "gestya"
  },
  {
    "name": "ESTACION DE SERVICIO SAGITARIO",
    "state": "santiago-del-estero",
    "city": "fernandez",
    "address": "Ruta Nac. 34 Km 687",
    "lat": -27.9141072,
    "lng": -63.8887289,
    "email": "marceloreal.shell.fernandez@hotmail.com",
    "phone": "(0385)154082365",
    "type": "gestya"
  },
  {
    "name": "TRANSLUCOM S.R.L",
    "state": "santiago-del-estero",
    "city": "frias",
    "address": "Entre Rios Y Centenario",
    "lat": -28.6337198,
    "lng": -65.1223857,
    "email": "gyadon@translucom.com.ar",
    "type": "gestya"
  },
  {
    "name": "YADON PABLO DANIEL",
    "state": "santiago-del-estero",
    "city": "frias",
    "address": "San Martin 697",
    "lat": -28.63593,
    "lng": -65.13102,
    "email": "p_d_yadon@yahoo.com.ar",
    "phone": "(03854)423447",
    "type": "gestya"
  },
  {
    "name": "MUSSI OSCAR DANIEL",
    "state": "santiago-del-estero",
    "city": "la-banda",
    "address": "Av. Belgrano 838 - Barrio : San Martin",
    "lat": -27.7383018408163,
    "lng": -64.2480529734694,
    "type": "gestya"
  },
  {
    "name": "MOSCHINI SERVICIOS",
    "state": "santiago-del-estero",
    "city": "los-juries",
    "address": "Salta S/N",
    "lat": -28.4629328,
    "lng": -62.1103039,
    "email": "gustavo-moschini@hotmail.com",
    "phone": "(03471)15610370",
    "type": "gestya"
  },
  {
    "name": "LARREA EMILIANO",
    "state": "santiago-del-estero",
    "city": "quimili",
    "address": "Ruta Prov Nº6 Km 3 Y Av San Martin",
    "lat": -27.6446881,
    "lng": -62.4174351,
    "email": "emilianolarrea31@gmail.com",
    "phone": "(03476)15609929",
    "type": "gestya"
  },
  {
    "name": "NINA ÑAWI S.A.S.",
    "state": "santiago-del-estero",
    "city": "quimili",
    "address": "Av San Martin Y Ruta Provincial N°6 0 - Barrio : Campos I",
    "lat": -27.6446881,
    "lng": -62.4174351,
    "type": "gestya"
  },
  {
    "name": "FULL CAR",
    "state": "santiago-del-estero",
    "city": "santiago-del-estero",
    "address": "Libertad 3315",
    "lat": -27.7954358,
    "lng": -64.2721071,
    "email": "hugolianza@hotmail.com",
    "phone": "(0385)4391660",
    "type": "gestya"
  },
  {
    "name": "GREENTEC",
    "state": "tucuman",
    "city": "alderetes",
    "address": "Ruta Alternativa Alderetes Km 1.5",
    "lat": -26.8132129,
    "lng": -65.1411367,
    "email": "fedegarfer@hotmail.com",
    "phone": "(381)3904511",
    "type": "gestya"
  },
  {
    "name": "AGROVELARDEZ",
    "state": "tucuman",
    "city": "banda-del-rio-sali",
    "address": "Pje Casero Esq. Azcuenaga",
    "lat": -26.8401382,
    "lng": -65.1609737,
    "email": "agrovelardez@gmail.com",
    "phone": "(381)6507292",
    "type": "gestya"
  },
  {
    "name": "SERVICIO TECNICO TUCUMAN (DE MIGUEL ANGEL MARTINEZ)",
    "state": "tucuman",
    "city": "banda-del-rio-sali",
    "address": "Adan Quiroga 103-Altura Ruta 9 Km 1286,5",
    "lat": -26.83333,
    "lng": -65.16667,
    "email": "sttmartinez@hotmail.com",
    "phone": "(0381)155880355",
    "type": "gestya"
  },
  {
    "name": "JOUSSE EDUARDO CARLOS",
    "state": "tucuman",
    "city": "concepcion",
    "address": "San Martin 441",
    "lat": -27.3452647,
    "lng": -65.5940775,
    "email": "edujousse@gmail.com",
    "phone": "(0381)155878307",
    "type": "gestya"
  },
  {
    "name": "PROCAR EQUIPAMIENTOS",
    "state": "tucuman",
    "city": "concepcion",
    "address": "Roca 250",
    "lat": -27.3435656,
    "lng": -65.5903027,
    "email": "procarequipamientos@gmail.com",
    "phone": "(03865)426387",
    "type": "gestya"
  },
  {
    "name": "ACCESORIO PESADOS AGSA",
    "state": "tucuman",
    "city": "famailla",
    "address": "Barrio San Nicolas (Ex Estacion De Servicio Agsa)",
    "lat": -27.05752995,
    "lng": -65.4023554887828,
    "email": "accesoriospesadosagsa@gmail.com",
    "phone": "(0381)153476352",
    "type": "gestya"
  },
  {
    "name": "AGROVELARDEZ",
    "state": "tucuman",
    "city": "la-banda-del-rio-sali",
    "address": "Pasaje Caseros Esq. Azcuenaga",
    "lat": -26.89092,
    "lng": -65.295813,
    "email": "agrovelardez@gmail.com",
    "type": "gestya"
  },
  {
    "name": "SERVICIO TECNICO DANIEL DIAZ",
    "state": "tucuman",
    "city": "las-talitas",
    "address": "Barrio El Sol Manzana \"K\" -Lote \"3\"",
    "lat": -27.9151217,
    "lng": -65.1620807,
    "email": "david.daniel.diaz1278@gmail.com",
    "type": "gestya"
  },
  {
    "name": "GALLARDO CARLOS A.",
    "state": "tucuman",
    "city": "los-sarmiento",
    "address": "Gral. Güemes Y Av. Sarmiento",
    "lat": -26.833053,
    "lng": -65.194171,
    "email": "carlos_antonio_gallardo@hotmail.com",
    "phone": "(03865)494110",
    "type": "gestya"
  },
  {
    "name": "DISTRIBUIDORA FREDDY",
    "state": "tucuman",
    "city": "san-miguel-de-tucuman",
    "address": "Crisostomo Alvarez 1133",
    "lat": -26.8301342186773,
    "lng": -65.2148026155445,
    "email": "distrifreddy@gmail.com",
    "phone": "(0381)4306616",
    "type": "gestya"
  },
  {
    "name": "GALLARDO HERNAN FLORINDO",
    "state": "tucuman",
    "city": "san-miguel-de-tucuman",
    "address": "Lavalle 3633",
    "lat": -26.830346,
    "lng": -65.2535357,
    "type": "gestya"
  },
  {
    "name": "GALVAN EDGARDO RAFAEL",
    "state": "tucuman",
    "city": "san-pablo",
    "address": "Manzana 3 Casa 11 Barrio San Nicolas 4129 San Pablo Tucuman",
    "lat": -34.605323,
    "lng": -58.392026,
    "email": "mecanicaintegraldiez@hotmail.com",
    "phone": "(381)154760714",
    "type": "gestya"
  },
  {
    "name": "VARGAS FRANCISCO DANIEL",
    "state": "tucuman",
    "city": "villa-mariano-moreno",
    "address": "Uno 203",
    "lat": -26.7769069,
    "lng": -65.2036892,
    "email": "nicolasftgf@gmail.com",
    "type": "gestya"
  },
  {
    "name": "MONZON MAXIMILIANO GUSTAVO",
    "state": "buenos-aires",
    "city": "villa-ballester",
    "address": "ALTE BROWN 4128",
    "lat": -34.55964350041981,
    "lng": -58.56653635124378,
    "email": "pasionpormotores1991@gmail.com",
    "phone": "011 – 1562443248",
    "type": "gestya"
  },
  {
    "name": "JM CLIMATIZACIÓN INTEGRAL",
    "state": "salta",
    "city": "las-lajitas",
    "address": "Alberdi Esquina Francisco Juncosa",
    "lat": -24.720089288487657,
    "lng": -64.1996518037491,
    "email": "jmmgacioppo@gmail.com",
    "phone": "3877 – 400587",
    "type": "gestya"
  },
  {
    "name": "LOPEZ M&C",
    "state": "buenos-aires",
    "city": "bahia-blanca",
    "address": "EL CALDEN 3492-BARRIO:VIAJANTE DEL SUR",
    "lat": -38.73026380404567,
    "lng": -62.20772672081327,
    "email": "lopez.mc.rut.35@gmail.com",
    "phone": "291 - 5160416",
    "type": "gestya"
  },
  {
    "name": "TECNO 25",
    "state": "la-pampa",
    "city": "25-de-mayo",
    "address": "AV DON BOSCO 19",
    "lat": -37.76886954194078,
    "lng": -67.7133679906266,
    "email": "fabiofcollazo@hotmail.com",
    "phone": "0299 – 155965704",
    "type": "gestya"
  }
]
